Publication,Owner,Postcode,LAD,id,Website,Cost,Launch,Frequency,Twitter handle,Total number of titles in the same Local Authority District,OBJECTID,LAD22CD,BNG_E,BNG_N,LONG,LAT,SHAPE_Length,SHAPE_Area,indep
853 London,Presumed independent,NA,Greenwich,cj4; htfp_database,https://853.london; https://853.london/,NA,NA,NA,853london,2,287,E09000011,542507,175879,0.050092999,51.46394,45482.7375242832,50439344.6325748,Independent
A Little Bit of Stone,Presumed independent,NA,Stafford,cj4; htfp_database,https://alittlebitofstone.com; https://alittlebitofstone.com/,NA,NA,NA,bitofstone,2,199,E07000197,389001,327836,-2.1647501,52.847919,159072.547255001,598172189.401383,Independent
Abbey Wood & Thamesmead Mercury,Tindle Newspapers Ltd,SW16 1DS,Lambeth,mrc2021; ramsay,http://www.mercury-today.co.uk/,paid,NA,weekly,NA,14,298,E09000022,531117,175629,-0.11386,51.464451,34173.5724937858,27237356.6868511,Legacy
Aberdeen Citizen,DC Thomson & Company Limited,AB15 6DF,Aberdeen City,mrc2021; ramsay,http://www.aberdeencitizen.co.uk/,free,NA,weekly,pressjournal,4,339,S12000033,387763,808479,-2.20398,57.166969,98933.040938299,205588277.323871,Legacy
Aberdeen Evening Express,DC Thomson & Company Limited,AB15 6DF,Aberdeen City,htfp_database; jicreg; lmw; mrc2021; ramsay,/tag/aberdeen-evening-express/; http://www.eveningexpress.co.uk; http://www.eveningexpress.co.uk/,paid,NA,daily,pressjournal,4,339,S12000033,387763,808479,-2.20398,57.166969,98933.040938299,205588277.323871,Legacy
Aberdeen Live,Presumed independent,NA,Aberdeen City,NA,NA,NA,Jul-21,NA,NA,4,339,S12000033,387763,808479,-2.20398,57.166969,98933.040938299,205588277.323871,Independent
Abergavenny Chronicle,Tindle Newspapers Ltd,NP7 5AA,Monmouthshire,abc; htfp_database; ipso; jicreg; lmw; mrc2021; ramsay; tindle,/tag/abergavenny-chronicle/; http://www.abergavennychronicle.com; http://www.abergavenny-chronicle-today.co.uk/,paid,NA,weekly,aberchronicle,3,371,W06000021,337812,209231,-2.9028001,51.778271,250870.543419591,886044959.883788,Legacy
Abingdon Herald,Newsquest PLC,OX2 0EJ,Oxford,htfp_database; lmw; mrc2021; ramsay,http://www.abingdonherald.co.uk; https://www.heraldseries.co.uk/; http://www.heraldseries.co.uk/,paid,NA,weekly,NA,11,187,E07000178,452277,206368,-1.24405,51.753571,34993.844626057,45602825.5071329,Legacy
Accrington Observer,Reach PLC,OL9 8EF,Oldham,abc; htfp_database; ipso; jicreg; lmw; mrc2021; ramsay; reach,http://www.accringtonobserver.co.uk; /tag/accrington-observer/; http://www.lancs.live; http://www.accringtonobserver.co.uk/,paid,NA,weekly,LiveLancs,15,244,E08000004,396603,406784,-2.0527401,53.557678,71145.2166053479,142344867.617202,Legacy
Aintree & Maghull Champion,Waypride Ltd,NA,Sefton,mrc2021,NA,NA,NA,NA,NA,9,254,E08000014,334282,398832,-2.99177,53.482101,115703.659536219,202462446.366116,Legacy
Airdrie & Coatbridge Advertiser,Reach PLC,ML6 6AF,North Lanarkshire,abc; htfp_database; ipso; jicreg; mrc2021; ramsay,http://iclanarkshire.icnetwork.co.uk/acadvertiser; http://www.dailyrecord.co.uk/authors/airdrie-and-coatbridge-advertiser/,paid,NA,weekly,Daily_Record,5,352,S12000050,277984,665608,-3.9514,55.868141,163983.319889321,472298223.95542,Legacy
Aldershot News & Mail (Aldershot),Reach PLC,GU1 1QA,Guildford,mrc2021; ramsay,http://www.gethampshire.co.uk/,paid,NA,weekly,SurreyLive,28,207,E07000209,500408,151481,-0.56256998,51.253658,128412.382018559,270931144.020454,Legacy
Aldershot News & Mail (Camberley),Reach PLC,GU1 1QA,Guildford,mrc2021; ramsay,http://www.gethampshire.co.uk/,paid,NA,weekly,SurreyLive,28,207,E07000209,500408,151481,-0.56256998,51.253658,128412.382018559,270931144.020454,Legacy
Aldershot News & Mail (Farnborough),Reach PLC,GU1 1QA,Guildford,mrc2021; ramsay,http://www.gethampshire.co.uk/,paid,NA,weekly,SurreyLive,28,207,E07000209,500408,151481,-0.56256998,51.253658,128412.382018559,270931144.020454,Legacy
Aldershot News & Mail (Farnham),Reach PLC,GU1 1QA,Guildford,mrc2021; ramsay,http://www.gethampshire.co.uk/,paid,NA,weekly,SurreyLive,28,207,E07000209,500408,151481,-0.56256998,51.253658,128412.382018559,270931144.020454,Legacy
Aldershot News & Mail (Fleet),Reach PLC,GU1 1QA,Guildford,mrc2021; ramsay,http://www.gethampshire.co.uk/,paid,NA,weekly,SurreyLive,28,207,E07000209,500408,151481,-0.56256998,51.253658,128412.382018559,270931144.020454,Legacy
Aldershot News & Mail (Sandhurst & Crowthorne),Reach PLC,GU1 1QA,Guildford,mrc2021; ramsay,http://www.gethampshire.co.uk/,paid,NA,weekly,SurreyLive,28,207,E07000209,500408,151481,-0.56256998,51.253658,128412.382018559,270931144.020454,Legacy
Aldershot News & Mail (Yateley),Reach PLC,GU1 1QA,Guildford,mrc2021; ramsay,http://www.gethampshire.co.uk/,paid,NA,weekly,SurreyLive,28,207,E07000209,500408,151481,-0.56256998,51.253658,128412.382018559,270931144.020454,Legacy
Alfreton Chad,National World,NG18 4TB,Mansfield,mrc2021; ramsay,http://www.chad.co.uk/news/local/alfreton,paid,NA,weekly,NA,5,183,E07000174,455047,363637,-1.17804,53.16703,51089.9016277907,76696927.4927333,Legacy
Allanwater Herald,Newsquest PLC,KY11 8QS,Fife,mrc2021; ramsay,http://www.allanwaterherald.co.uk/,free,NA,weekly,NA,10,349,S12000047,339187,704721,-2.9825101,56.231121,365662.212588176,1372428426.10165,Legacy
Alloa & Hillfoots Advertiser Journal,Newsquest PLC,FK10 1JA,Clackmannanshire,jicreg; mrc2021; ramsay,http://www.alloaadvertiser.com/,paid,NA,weekly,alloatiser,2,321,S12000005,291178,696402,-3.75316,56.147839,83965.0370535922,163912617.095115,Legacy
Alsager Chronicle,Heads (Congleton),CW12 1BW,Cheshire East,lmw; mrc2021; ramsay,https://www.chronicleseries.com/News/Alsager; http://www.chronicleseries.com/News/Alsager,paid,NA,weekly,CongletonChron,5,46,E06000049,380510,363462,-2.29299,53.167931,301202.123887001,1166357340.22482,Legacy
Alton Gazette,Tindle Newspapers Ltd,GU35 0AY,East Hampshire,mrc2021; ramsay,http://www.altonpostgazette.co.uk/,free,NA,weekly,NA,11,111,E07000085,474405,129237,-0.93970001,51.057652,144529.50155922,514427244.742776,Legacy
Alton Herald,Tindle Newspapers Ltd,GU9 7HL,Waverley,htfp_database; ipso; lmw; mrc2021; ramsay,http://www.alton-herald-today.co.uk; http://www.altonherald.com; http://www.altonherald.com/,paid,NA,weekly,NA,5,214,E07000216,496363,140635,-0.62343001,51.15686,125428.597835175,345170238.491103,Legacy
Altrincham Today,Presumed independent,NA,Trafford,cj4,http://altrincham.today,NA,NA,NA,altrinchamtoday,4,249,E08000009,375790,391162,-2.36572,53.41671,60714.9991313481,106044604.786096,Independent
Amersham Examiner,Reach PLC,UB8 1RG,Hillingdon,mrc2021; ramsay,http://www.getbucks.co.uk/,paid,NA,weekly,BucksLiveNews,4,293,E09000017,508166,183120,-0.44182,51.536629,63883.1561402852,115700600.04995,Legacy
Andersonstown News,Belfast Media Group,BT17 0LT,Belfast,htfp_database; mrc2021; ramsay,/tag/andersonstown-news/; http://belfastmediagroup.com/,paid,NA,weekly,ATownNews,11,312,N09000003,146465,529747,-5.9253502,54.59853,65866.7852260915,137716652.025126,Legacy
Andover Advertiser,Newsquest PLC,RG21 4EQ; SP10 2PE,Test Valley,htfp_database; ipso; jicreg; lmw; mrc2021; newsquest; ramsay,http://www.andoveradvertiser.co.uk; /tag/andover-advertiser; http://www.andoveradvertiser.co.uk; http://www.andoveradvertiser.co.uk/,paid,NA,weekly,NA,2,119,E07000093,434930,137329,-1.50214,51.134171,185887.250546779,627632026.747462,Legacy
Anfield & Walton Champion,Waypride Ltd,PR9 0QA,Sefton,mrc2021; ramsay,http://www.champnews.com/,free,NA,weekly,NA,9,254,E08000014,334282,398832,-2.99177,53.482101,115703.659536219,202462446.366116,Legacy
Anfield & Walton Star,Reach PLC,L69 3EB,Liverpool,mrc2021; ramsay; reach,http://www.liverpoolecho.co.uk/,free,NA,weekly,LivEchonews,11,252,E08000012,339361,390553,-2.91364,53.408298,67266.4172620812,133533748.841649,Legacy
Annandale Herald & Moffat News,DNG Online Limited,DG12 6EJ,Dumfries and Galloway,mrc2021; ramsay,http://www.dng24.co.uk/,paid,NA,weekly,dng_24,8,322,S12000006,270645,579856,-4.0286298,55.09621,830996.510342947,6675255843.90477,Legacy
Annandale Observer,DNG Online Limited,DG12 6EJ,Dumfries and Galloway,abc; htfp_database; ipso; lmw; mrc2021; ramsay,http://www.annandaleobserver.co.uk/; http://www.dng24.co.uk; http://www.dng24.co.uk/,paid,NA,weekly,dng_24,8,322,S12000006,270645,579856,-4.0286298,55.09621,830996.510342947,6675255843.90477,Legacy
Arden Observer,Bullivant Media Ltd,CV32 4BL,Warwick,mrc2021; ramsay,http://solihullobserver.co.uk/,free,NA,weekly,solihullobserve,10,220,E07000222,428484,267113,-1.58369,52.301418,116714.078810518,282882324.59023,Legacy
Ardrossan Herald,Newsquest PLC,KA22 8BP,North Ayrshire,mrc2021; ramsay,http://www.ardrossanherald.com/,paid,NA,weekly,ardrossanherald,8,332,S12000021,228996,651640,-4.7245998,55.72789,352531.623020533,903842513.598754,Legacy
Argyllshire Advertiser,Wyvex Media Ltd,PA31 8NB,Argyll and Bute,ipso; lmw; mrc2021; ramsay,https://www.argyllshireadvertiser.co.uk; http://www.argyllshireadvertiser.co.uk/,paid,NA,weekly,argyllshireadve,5,341,S12000035,200740,715443,-5.2211399,56.28944,3638663.64261861,7166073871.16255,Legacy
Armagh I,Presumed independent,NA,"Armagh City, Banbridge and Craigavon",cj4; htfp_database; impress,https://www.armaghi.com; https://www.armaghi.com/,NA,NA,NA,armaghi,1,311,N09000002,112110,508158,-6.4345498,54.3867,242954.33539518,1437068573.07739,Independent
Arran Banner,Wyvex Media Ltd,KA27 8AJ,North Ayrshire,abc; jicreg; lmw; mrc2021; ramsay,https://www.arranbanner.co.uk; http://www.arranbanner.co.uk/,paid,NA,weekly,arranbanner,8,332,S12000021,228996,651640,-4.7245998,55.72789,352531.623020533,903842513.598754,Legacy
Ascot News,Newsquest PLC,RG30 1BA,Reading,mrc2021; ramsay,http://www.bracknellnews.co.uk/ascot/,paid,NA,weekly,NA,13,36,E06000038,470226,173154,-0.99071002,51.453018,39327.6361285706,40397937.1150196,Legacy
Ashbourne News Telegraph,Reach PLC,DE6 1ES,Derbyshire Dales,abc; htfp_database; ipso; jicreg; lmw; mrc2021; ramsay,http://www.ashbournenewstelegraph.co.uk/; /tag/ashbourne-news-telegraph/; http://www.ashbournenewstelegraph.co.uk; http://www.ashbournenewstelegraph.co.uk/,paid,NA,weekly,derbyshire_live,1,74,E07000035,419697,358493,-1.70711,53.12326,245455.056178363,795318009.745209,Legacy
Ashfield Chad,National World,NG18 4TB,Mansfield,mrc2021; ramsay,http://www.chad.co.uk/,paid,NA,weekly,chadnews,5,183,E07000174,455047,363637,-1.17804,53.16703,51089.9016277907,76696927.4927333,Legacy
Asian Standard Bradford,Presumed independent,NA,Bradford,NA,NA,NA,Dec-20,Weekly,NA,3,271,E08000032,408395,438626,-1.87389,53.843819,135914.965732404,366419689.514742,Independent
Asian Standard Kirklees,Presumed independent,NA,Leeds,NA,NA,NA,Dec-20,Weekly,NA,10,274,E08000035,432528,436384,-1.50736,53.822731,161516.600530211,551706498.093345,Independent
Asian Standard Leeds,Presumed independent,NA,Leeds,NA,NA,NA,Feb-21,Weekly,NA,10,274,E08000035,432528,436384,-1.50736,53.822731,161516.600530211,551706498.093345,Independent
Asian Standard North-East,Presumed independent,NA,Newcastle upon Tyne,NA,NA,NA,Dec-20,Weekly,NA,6,260,E08000021,422287,569661,-1.65297,55.021,61698.2033641291,115108949.401407,Independent
Attleborough Mercury,Newsquest PLC,IP22 4AD,Babergh,mrc2021; ramsay,http://www.dissmercury.co.uk/home,free,NA,weekly,derehamtimes,5,202,E07000200,599987,244692,0.91614902,52.064499,171552.297348285,611604139.496087,Legacy
Ayr Advertiser,Newsquest PLC,KA22 8BP; KA22 8DA,North Ayrshire,htfp_database; ipso; jicreg; lmw; mrc2021; newsquest; ramsay,/tag/ayr-advertiser/; http://www.ayradvertiser.com; http://www.ayradvertiser.com/,paid,NA,weekly,ayradvertiser,8,332,S12000021,228996,651640,-4.7245998,55.72789,352531.623020533,903842513.598754,Legacy
Ayrshire Post,Reach PLC,KA7 1PX,South Ayrshire,abc; htfp_database; ipso; jicreg; mrc2021; ramsay; reach,http://icayrshire.icnetwork.co.uk/ayrshirepost; /tag/ayrshire-post/; http://www.dailyrecord.co.uk/all-about/ayr,paid,NA,weekly,Daily_Record,4,336,S12000028,226545,596271,-4.7289901,55.23008,333361.899935424,1234683487.54363,Legacy
Banbury Cake,Newsquest PLC,OX2 0EJ,Oxford,htfp_database; mrc2021; newsquest; ramsay,http://www.banburycake.net; /tag/banbury-cake/; http://www.banburycake.co.uk/,free,NA,weekly,theoxfordmail,11,187,E07000178,452277,206368,-1.24405,51.753571,34993.844626057,45602825.5071329,Legacy
Banbury Guardian,National World,OX16 0TQ,Cherwell,abc; htfp_database; ipso; jicreg; lmw; mrc2021; ramsay,http://www.banburyguardian.co.uk; /tag/banbury-guardian/; http://www.banburyguardian.co.uk; http://www.banburyguardian.co.uk/,paid,NA,weekly,banburynews,1,186,E07000177,449301,221201,-1.28506,51.887199,225617.39516414,588745404.830571,Legacy
Banffshire Advertiser,Iliffe Media,AB56 1BN,Moray,ipso; jicreg; lmw; mrc2021; ramsay,https://www.grampianonline.co.uk/buckie/; http://www.banffshireadvertiser.co.uk/Home/,paid,11/12/2019,weekly,NA,4,331,S12000020,328015,843590,-3.2020199,57.476799,395443.843108014,2257632218.03482,Legacy
Banffshire Herald,Iliffe Media,AB55 5BL,Moray,ipso; jicreg; lmw; mrc2021; ramsay,https://www.grampianonline.co.uk/buckie/; http://www.banffshireherald.co.uk/Home/,paid,11/12/2019,weekly,NA,4,331,S12000020,328015,843590,-3.2020199,57.476799,395443.843108014,2257632218.03482,Legacy
Banffshire Journal,Iliffe Media,AB45 1GE,Aberdeenshire,abc; htfp_database; ipso; jicreg; lmw; mrc2021; ramsay,http://www.banffshire-journal.co.uk; /tag/banffshire-journal/; https://www.grampianonline.co.uk/buckie/; http://www.banffshire-journal.co.uk/Home/,paid,11/12/2019,weekly,NA,13,340,S12000034,352284,816277,-2.7920799,57.234692,791859.815926895,6338657613.85259,Legacy
Bangor Mail,Reach PLC,LL55 1AG,Gwynedd,ipso; mrc2021; ramsay,http://www.dailypost.co.uk/all-about/bangor,paid,NA,weekly,northwaleslive,6,354,W06000002,280555,334966,-3.7771499,52.89883,470662.679671257,2619680843.3659,Legacy
Barking & Dagenham Post,Newsquest PLC,RM1 3NH; IG1 1UD,Babergh,abc; ipso; jicreg; mrc2021; newsquest; ramsay,http://www.barkinganddagenhampost.co.uk/home,paid,NA,weekly,BDPost,5,202,E07000200,599987,244692,0.91614902,52.064499,171552.297348285,611604139.496087,Legacy
Barnet & Potters Bar Press,Tindle Newspapers Ltd,EN5 4JX,Barnet,mrc2021; ramsay,http://www.barnet-today.co.uk/index.cfm,free,NA,weekly,basildonya,5,279,E09000003,523472,191753,-0.21821,51.61108,50815.597517739,86748227.8830847,Legacy
Barnet & Whetstone Press,Tindle Newspapers Ltd,EN5 4JX,Barnet,mrc2021; ramsay,http://www.barnet-today.co.uk/,free,NA,weekly,basildonya,5,279,E09000003,523472,191753,-0.21821,51.61108,50815.597517739,86748227.8830847,Legacy
Barnet Post,Presumed independent,NA,Waltham Forest,cj4; impress,https://barnetpost.co.uk,NA,NA,NA,NA,3,307,E09000031,537327,190277,-0.01881,51.594608,33326.6907765963,38807995.9514475,Independent
Barnoldswick & Earby Times,National World,BB11 1DP,Burnley,htfp_database; mrc2021; ramsay,http://www.pendletoday.co.uk/newsfront.aspx?sectionid=10; http://www.pendletoday.co.uk/,paid,NA,weekly,burnleyexpress,5,139,E07000117,384886,430882,-2.2307999,53.774059,57758.3849479257,110683988.566855,Legacy
Barnsley Chronicle,Acredula Group,S70 2AS,Barnsley,htfp_database; ipso; jicreg; lmw; mrc2021; ramsay,http://www.barnsley-chronicle.co.uk; /tag/barnsley-chronicle/; http://www.barnsleychronicle.com/; http://www.barnsley-chronicle.co.uk/,paid,NA,weekly,ChronOnline,2,256,E08000016,429979,403327,-1.54925,53.525768,126418.480693043,329077576.744516,Legacy
Barnsley Independent,Acredula Group,S70 2AS,Barnsley,mrc2021; ramsay,http://www.barnsleyindependent.com/,free,NA,weekly,NA,2,256,E08000016,429979,403327,-1.54925,53.525768,126418.480693043,329077576.744516,Legacy
Barrhead News,Newsquest PLC,G81 4XJ,West Dunbartonshire,htfp_database; ipso; lmw; mrc2021; newsquest; ramsay,/tag/barrhead-news/; http://www.barrheadnews.com; http://www.barrheadnews.com/,paid,NA,weekly,barrheadnews,6,344,S12000039,242904,681586,-4.52074,56.0014,84804.5167625484,182782222.654484,Legacy
Barrow Advertiser,Newsquest PLC,LA14 5QS,Barrow-in-Furness,mrc2021; ramsay,http://www.cngroup.co.uk/advertiser.php,free,NA,weekly,NA,2,66,E07000027,321741,474165,-3.1998999,54.15731,80045.8146728079,132075307.180395,Legacy
Barry & District News,Newsquest PLC,NP20 3QN,Newport,ipso; jicreg; mrc2021; ramsay,http://www.barryanddistrictnews.co.uk/,paid,NA,weekly,NA,5,372,W06000022,337897,187432,-2.8976901,51.58231,135644.59703238,217517982.932784,Legacy
Basildon Standard,Newsquest PLC,SS14 3BE,Basildon,lmw; mrc2021; newsquest,https://www.basildonstandard.co.uk/,NA,NA,NA,Essex_Echo,8,92,E07000066,571548,190848,0.47505501,51.590359,59682.7276589601,110449130.919031,Legacy
Basingstoke Extra,Newsquest PLC,RG21 6YD,Basingstoke and Deane,mrc2021; ramsay,http://www.basingstokegazette.co.uk/,free,NA,weekly,BasGazette,2,110,E07000084,454508,151423,-1.22021,51.259369,143445.561610085,633808768.307362,Legacy
Basingstoke Gazette,Newsquest PLC,RG21 4EQ; RG21 6YD,Basingstoke and Deane,htfp_database; ipso; lmw; mrc2021; newsquest; ramsay,http://www.basingstokegazette.co.uk; http://www.basingstokegazette.co.uk/,paid,NA,weekly,BasGazette,2,110,E07000084,454508,151423,-1.22021,51.259369,143445.561610085,633808768.307362,Legacy
Bath Chronicle,Reach PLC,BA1 2DA,Bath and North East Somerset,abc; htfp_database; ipso; jicreg; lmw; mrc2021; ramsay,http://www.thisisbath.com; /tag/bath-chronicle/; http://www.bathchronicle.co.uk; http://www.bathchronicle.co.uk/,paid,NA,weekly,somersetlive,4,22,E06000022,366217,161999,-2.4865401,51.356041,141674.070852301,351123167.511109,Legacy
Batley & Birstall News,National World,LS12 1BE,Leeds,ipso; mrc2021; ramsay,http://www.batleynews.co.uk/,paid,NA,weekly,DewsReporter,10,274,E08000035,432528,436384,-1.50736,53.822731,161516.600530211,551706498.093345,Legacy
Battle Observer,National World,TN38 9LZ,Hastings,htfp_database; mrc2021; ramsay,/tag/battle-observer/; http://www.ryeandbattleobserver.co.uk/,paid,NA,weekly,Sussex_World,5,88,E07000062,581528,110694,0.57839501,50.867241,35829.4257312627,30801104.2222098,Legacy
Beccles & Bungay Journal,Newsquest PLC,NR1 1RE; NR34 9TB,Babergh,abc; ipso; mrc2021; newsquest; ramsay,www.becclesandbungayjournal.co.uk/home,paid,NA,weekly,BBJournal24,5,202,E07000200,599987,244692,0.91614902,52.064499,171552.297348285,611604139.496087,Legacy
Bedford Borough Times & Citizen,National World,MK40 3EU,Bedford,mrc2021; ramsay,http://www.bedfordtoday.co.uk/,free,NA,weekly,BedfordTC,4,52,E06000055,505721,256463,-0.45462999,52.196281,131719.277394327,476408313.585462,Legacy
Bedford Independent,Presumed independent,NA,Bedford,cj4; htfp_database; impress,https://www.bedfordindependent.co.uk; https://www.bedfordindependent.co.uk/,NA,NA,NA,BedfordIndy,4,52,E06000055,505721,256463,-0.45462999,52.196281,131719.277394327,476408313.585462,Independent
BedfordshireLive,Presumed independent,NA,Bedford,NA,NA,NA,Jan-21,NA,NA,4,52,E06000055,505721,256463,-0.45462999,52.196281,131719.277394327,476408313.585462,Independent
Belfast News,National World,BT1 5JA,Belfast,mrc2021; ramsay,http://www.newsletter.co.uk/,free,NA,weekly,News_Letter,11,312,N09000003,146465,529747,-5.9253502,54.59853,65866.7852260915,137716652.025126,Legacy
Belfast Telegraph,Independent News and Media Ltd,BT1 1DN,Belfast,htfp_database; lmw; mrc2021; ramsay,http://www.belfasttelegraph.co.uk; /tag/belfast-telegraph/; http://www.belfasttelegraph.co.uk/,paid,NA,daily,beltel,11,312,N09000003,146465,529747,-5.9253502,54.59853,65866.7852260915,137716652.025126,Legacy
Bellshill Speaker,National World,ML1 1BT,North Lanarkshire,htfp_database; ipso; mrc2021; ramsay,http://www.bellshilltoday.co.uk; http://www.motherwelltimes.co.uk/,paid,NA,weekly,GlasgowWorldUK,5,352,S12000050,277984,665608,-3.9514,55.868141,163983.319889321,472298223.95542,Legacy
Bentham Guardian,National World,LA3 3PA,Lancaster,mrc2021; ramsay,http://www.lancasterguardian.co.uk/,paid,NA,weekly,guardiandigital,4,143,E07000121,356896,464988,-2.6603,54.07901,180293.05419528,653896975.124828,Legacy
Berrow's Worcester Journal,Newsquest PLC,WR2 5JX,Worcester,jicreg; mrc2021; ramsay,http://www.worcesternews.co.uk/bj/intro/,free,NA,weekly,worcesternews,5,231,E07000237,385725,255196,-2.2102499,52.19482,31261.2304343563,33278111.1237198,Legacy
Berwick Advertiser,National World,TD15 1BN,Northumberland,abc; htfp_database; ipso; jicreg; lmw; mrc2021; ramsay,http://www.berwick-advertiser.co.uk; /tag/berwick-advertiser/; https://www.northumberlandgazette.co.uk/; http://www.berwick-advertiser.co.uk/,paid,NA,weekly,alnwickgazette,9,54,E06000057,395322,600700,-2.0752299,55.300381,558791.829751923,5078358538.27702,Legacy
Berwickshire News East Lothian Herald,National World,TD15 1BN,Northumberland,mrc2021; ramsay,http://www.berwickshirenews.co.uk/,paid,NA,weekly,Sreporter,9,54,E06000057,395322,600700,-2.0752299,55.300381,558791.829751923,5078358538.27702,Legacy
Bexhill Observer,National World,TN38 9LZ,Hastings,htfp_database; mrc2021; ramsay,http://www.bexhilltoday.co.uk; http://www.bexhillobserver.net/,paid,NA,weekly,Sussex_World,5,88,E07000062,581528,110694,0.57839501,50.867241,35829.4257312627,30801104.2222098,Legacy
Bexley Mercury,Tindle Newspapers Ltd,SW16 1DS,Lambeth,mrc2021; ramsay; reach,http://www.mercury-today.co.uk/,free,NA,weekly,NA,14,298,E09000022,531117,175629,-0.11386,51.464451,34173.5724937858,27237356.6868511,Legacy
Bexley News Shopper,Newsquest PLC,BR5 1BT,Bromley,htfp_database; mrc2021; ramsay,http://www.newsshopper.co.uk/news/newsbexley/; http://www.newsshopper.co.uk/news/bexley/,free,NA,weekly,newsshopper,9,282,E09000006,542036,165708,0.039246,51.372669,76141.6277070387,150130427.159217,Legacy
Bexley Times,Newsquest PLC,RM1 3NH; IG1 1UD,Breckland,htfp_database; lmw; mrc2021; newsquest; ramsay,http://www.bexleytimes.co.uk; /tag/bexley-times/; https://www.barkinganddagenhampost.co.uk/; http://www.bexleytimes.co.uk/home,free,NA,weekly,BDPost,4,165,E07000143,591015,303330,0.81871599,52.594212,239522.366983952,1305116636.281,Legacy
Bicester Advertiser,Newsquest PLC,OX2 OEJ; OX2 0EJ,Oxford,htfp_database; ipso; jicreg; lmw; mrc2021; newsquest; ramsay,http://www.bicesteradvertiser.net; /tags/bicester-advertiser/; http://www.bicesteradvertiser.net; http://www.bicesteradvertiser.net/,paid,NA,weekly,NA,11,187,E07000178,452277,206368,-1.24405,51.753571,34993.844626057,45602825.5071329,Legacy
Biddulph Chronicle,Heads (Congleton),CW12 1BW,Cheshire East,htfp_database; lmw; mrc2021; ramsay,http://www.beartown.co.uk/default.asp?l=1&i=4&s=news_i; http://www.chronicleseries.com; http://www.chronicleseries.com/News/Biddulph,paid,NA,weekly,CongletonChron,5,46,E06000049,380510,363462,-2.29299,53.167931,301202.123887001,1166357340.22482,Legacy
Biggin Hill News,Tindle Newspapers Ltd,TN16 1AT,Sevenoaks,htfp_database; mrc2021; ramsay,http://www.biggin-hill-today.co.uk/IT/smalltopframe.cfm; http://www.biggin-hill-today.co.uk/,free,NA,weekly,NA,3,133,E07000111,552776,155218,0.188936,51.275631,134424.857442803,370347002.873006,Legacy
Biggleswade Chronicle,National World,SG18 0JB,Central Bedfordshire,abc; htfp_database; ipso; jicreg; lmw; mrc2021; ramsay,http://www.biggleswadetoday.co.uk; /tag/biggleswade-chronicle/; http://www.biggleswadetoday.co.uk; http://www.biggleswadetoday.co.uk/,paid,NA,weekly,BiggyChronicle,1,53,E06000056,504615,234492,-0.47753999,51.999031,232685.180099796,715665436.199321,Legacy
Bingham Advertiser,Iliffe Media,NG24 1JX,Newark and Sherwood,mrc2021; ramsay,http://newarkadvertiser.co.uk/,paid,NA,weekly,advertisergroup,3,184,E07000175,470624,357451,-0.94643003,53.1096,179813.123978475,651835341.530325,Legacy
Birmingham Mail,Reach PLC,B24 9FF,Birmingham,abc; htfp_database; ipso; jicreg; lmw; mrc2021; ramsay,/tag/birmingham-mail/; http://www.birminghammail.co.uk; http://www.birminghammail.co.uk/,paid,NA,daily,birmingham_live,4,264,E08000025,408150,287352,-1.88141,52.484039,106250.794014247,267791151.737895,Legacy
Birmingham Post,Reach PLC,B24 9FF,Birmingham,abc; htfp_database; ipso; jicreg; mrc2021; ramsay,http://www.birminghampost.net/; /tag/birmingham-post/; http://www.birminghampost.co.uk/,paid,NA,weekly,businesslive,4,264,E08000025,408150,287352,-1.88141,52.484039,106250.794014247,267791151.737895,Legacy
Birmingham World,Presumed independent,NA,Birmingham,NA,NA,NA,Aug-21,NA,NA,4,264,E08000025,408150,287352,-1.88141,52.484039,106250.794014247,267791151.737895,Independent
Bishop's Stortford Independent,Iliffe Media,NA,East Hertfordshire,illiffe; ipso; mrc2021,NA,NA,NA,NA,NA,6,236,E07000242,537995,220370,0.0027389999,51.864849,135178.027176787,475669142.173311,Legacy
Bishopbriggs Herald,National World,G66 3AA,East Dunbartonshire,mrc2021; ramsay,http://www.kirkintilloch-herald.co.uk/,paid,NA,weekly,GlasgowWorldUK,4,348,S12000045,261240,676154,-4.2241702,55.95829,99592.6325879836,174489033.610113,Legacy
Bitternepark.info,Presumed independent,NA,Southampton,cj4,https://www.bitternepark.info,NA,NA,NA,bitternepark,3,43,E06000045,442303,113700,-1.39952,50.9212,37284.9505247132,56385148.867545,Independent
Blairgowrie Advertiser,Reach PLC,PH1 5TF,Perth and Kinross,abc; htfp_database; ipso; jicreg; lmw; mrc2021; ramsay; reach,http://icperthshire.icnetwork.co.uk/blairgowrie; https://bit.ly/2Urve62; http://www.dailyrecord.co.uk/all-about/perthshire,paid,NA,weekly,Daily_Record,3,350,S12000048,284302,744185,-3.88484,56.575279,566717.975472112,5421362723.58906,Legacy
Blythe & Forsbrook Times,Cheadle and Tean Times Ltd,ST10 1BD,Stoke-on-Trent,mrc2021; ramsay,http://www.timesechoandlife.co.uk/,paid,NA,weekly,timesandecho,5,21,E06000021,389438,346652,-2.15888,53.017071,63971.3417170553,93448551.6494072,Legacy
Bo'ness Journal,National World,FK3 8WX,Falkirk,mrc2021; ramsay,http://www.linlithgowgazette.co.uk/,paid,NA,weekly,falkirk_herald,4,327,S12000014,285585,680170,-3.83619,56.000771,129349.294976712,314934626.067449,Legacy
Bognor Regis Observer,National World,PO21 1BJ,Arun,ipso; lmw; mrc2021; ramsay,http://www.bognor.co.uk; http://www.bognor.co.uk/,paid,NA,weekly,Sussex_World,1,222,E07000224,495144,105723,-0.64999002,50.843208,115961.388448804,224703265.774671,Legacy
Bolton Journal,Newsquest PLC,BL1 1AR,Bolton,mrc2021; ramsay,http://www.theboltonnews.co.uk/,free,NA,weekly,TheBoltonNews,4,241,E08000001,368352,409873,-2.4795201,53.584492,82643.5197746866,139792040.674584,Legacy
Bolton News,Newsquest PLC,BL1 1AR,Bolton,htfp_database; mrc2021; ramsay,http://www.boltoneveningnews.co.uk; http://www.theboltonnews.co.uk/,paid,NA,daily,TheBoltonNews,4,241,E08000001,368352,409873,-2.4795201,53.584492,82643.5197746866,139792040.674584,Legacy
Bootle Champion,Waypride Ltd,PR9 0QA,Sefton,mrc2021; ramsay,http://www.champnews.com/,free,NA,weekly,NA,9,254,E08000014,334282,398832,-2.99177,53.482101,115703.659536219,202462446.366116,Legacy
Border Telegraph,Newsquest PLC,TD1 3AA,Scottish Borders,htfp_database; ipso; jicreg; lmw; mrc2021; newsquest; ramsay,http://www.bordertelegraph.com; /tag/border-telegraph/; http://www.bordertelegraph.com; http://www.bordertelegraph.com/,paid,NA,weekly,bordertelegraph,4,334,S12000026,345889,626137,-2.85869,55.525951,522860.077021967,4742689759.4939,Legacy
Bordon Herald,Tindle Newspapers Ltd,GU9 7HL,Waverley,htfp_database; ipso; lmw; mrc2021; ramsay,http://www.bordon-herald-today.co.uk/IT/index2.cfm; http://www.bordonherald.com; http://www.bordonherald.com/,paid,NA,weekly,NA,5,214,E07000216,496363,140635,-0.62343001,51.15686,125428.597835175,345170238.491103,Legacy
Bordon Messenger,Tindle Newspapers Ltd,GU35 0AY,East Hampshire,lmw; mrc2021; ramsay,http://www.bordonmessenger.com; http://www.bordonmessenger.com/,free,NA,weekly,NA,11,111,E07000085,474405,129237,-0.93970001,51.057652,144529.50155922,514427244.742776,Legacy
Bordon Post,Tindle Newspapers Ltd,GU32 3JR,East Hampshire,mrc2021; ramsay,http://www.petersfieldpost.co.uk/,paid,NA,weekly,postpfield,11,111,E07000085,474405,129237,-0.93970001,51.057652,144529.50155922,514427244.742776,Legacy
Borehamwood & Elstree Times,Newsquest PLC,WD18 8RJ,Watford,mrc2021; ramsay,http://www.borehamwoodtimes.co.uk/,free,NA,weekly,Bwood_Times,14,126,E07000103,510441,198197,-0.40428999,51.6717,26390.2208397151,21430353.229502,Legacy
Boston Standard,National World,PE21 6ND,Boston,abc; htfp_database; ipso; jicreg; lmw; mrc2021; ramsay,http://www.bostonnow.co.uk; /tag/boston-standard/; https://www.lincolnshireworld.com/; http://www.bostonstandard.co.uk/,paid,NA,weekly,LincsWorld,5,158,E07000136,526851,343953,-0.11218,52.97794,114895.261356042,397792639.440678,Legacy
Boston Target,Reach PLC,PE21 6SR,Boston,abc; htfp_database; ipso; lmw; mrc2021; ramsay,http://www.thisisboston.co.uk; /tag/boston-target/; https://www.lincolnshirelive.co.uk; http://www.bostontarget.co.uk/,paid+free,NA,weekly,LincsLive,5,158,E07000136,526851,343953,-0.11218,52.97794,114895.261356042,397792639.440678,Legacy
Bourne Local,Iliffe Media,PE9 2EP,South Kesteven,abc; htfp_database; illiffe; ipso; lmw; mrc2021; ramsay,http://www.bournelocal.co.uk; http://www.bournelocal.co.uk/,paid,NA,weekly,thebournelocal,4,163,E07000141,501406,328986,-0.49564999,52.84885,209809.642173754,942585741.048617,Legacy
Bracknell & Wokingham Midweek,Newsquest PLC,RG30 1BA,Reading,mrc2021; ramsay,http://www.bracknellnews.co.uk/news/wokingham/,free,NA,weekly,bracknellnews,13,36,E06000038,470226,173154,-0.99071002,51.453018,39327.6361285706,40397937.1150196,Legacy
Bracknell News,Newsquest PLC,RG1 2LU; RG30 1BA,Reading,htfp_database; ipso; lmw; mrc2021; newsquest; ramsay,/tag/bracknell-news/; https://www.bracknellnews.co.uk/; http://www.bracknellnews.co.uk/,paid,NA,weekly,bracknellnews,13,36,E06000038,470226,173154,-0.99071002,51.453018,39327.6361285706,40397937.1150196,Legacy
Bradford Telegraph & Argus,Newsquest PLC,BD1 1JR,Bradford,mrc2021; ramsay,http://www.thetelegraphandargus.co.uk/,paid,NA,daily,Bradford_TandA,3,271,E08000032,408395,438626,-1.87389,53.843819,135914.965732404,366419689.514742,Legacy
Braintree & Witham Times (Braintree),Newsquest PLC,CM7 1JP,Braintree,mrc2021; ramsay,http://www.braintreeandwithamtimes.co.uk/,paid,NA,weekly,BW_Times,6,93,E07000067,577253,227335,0.57591099,51.91634,168682.860674143,611708022.085835,Legacy
Braintree & Witham Times (Dunmow),Newsquest PLC,CM7 1JP,Braintree,mrc2021; ramsay,http://www.braintreeandwithamtimes.co.uk/,free,NA,weekly,BW_Times,6,93,E07000067,577253,227335,0.57591099,51.91634,168682.860674143,611708022.085835,Legacy
Braintree & Witham Times (Witham),Newsquest PLC,CM7 1JP,Braintree,mrc2021; ramsay,http://www.braintreeandwithamtimes.co.uk/,paid,NA,weekly,BW_Times,6,93,E07000067,577253,227335,0.57591099,51.91634,168682.860674143,611708022.085835,Legacy
Brecon & Radnor Express,Tindle Newspapers Ltd,LL55 1AG,Gwynedd,abc; ipso; jicreg; mrc2021; ramsay; tindle,http://www.brecon-radnor-today.co.uk/,paid,NA,weekly,BnRExpress,6,354,W06000002,280555,334966,-3.7771499,52.89883,470662.679671257,2619680843.3659,Legacy
Brent & Kilburn Times,Newsquest PLC,WC2A 3LJ; NW3 3HF,Breckland,ipso; jicreg; mrc2021; newsquest; ramsay,http://www.kilburntimes.co.uk/home,free,NA,weekly,islingtongztte,4,165,E07000143,591015,303330,0.81871599,52.594212,239522.366983952,1305116636.281,Legacy
Brentford TW8,Presumed independent,NA,Hounslow,cj4; htfp_database,http://www.brentfordtw8.com; http://www.brentfordtw8.com/,NA,NA,NA,NA,2,294,E09000018,512742,174965,-0.37847,51.462429,57603.1816477849,56585426.7224442,Independent
"Brentford, Isleworth & Chiswick Chronicle",Reach PLC,GU1 1QA,Guildford,mrc2021; ramsay,http://www.getwestlondon.co.uk/all-about/feltham,free,NA,weekly,myldn,28,207,E07000209,500408,151481,-0.56256998,51.253658,128412.382018559,270931144.020454,Legacy
Brentwood Gazette (Billericay),Reach PLC,CM2 5PF,Chelmsford,mrc2021; ramsay,http://www.brentwoodgazette.co.uk/,paid,NA,weekly,essexlive,7,96,E07000070,572116,206972,0.49117699,51.735031,113215.91129173,342997310.005802,Legacy
Brentwood Gazette (Brentford),Reach PLC,CM2 5PF,Chelmsford,mrc2021; ramsay,http://www.brentwoodgazette.co.uk/,paid,NA,weekly,essexlive,7,96,E07000070,572116,206972,0.49117699,51.735031,113215.91129173,342997310.005802,Legacy
Brentwood Gazette (Ongar),Reach PLC,CM2 5PF,Chelmsford,mrc2021; ramsay,http://www.brentwoodgazette.co.uk/,paid,NA,weekly,essexlive,7,96,E07000070,572116,206972,0.49117699,51.735031,113215.91129173,342997310.005802,Legacy
Brentwood Gazette (Romford),Reach PLC,CM2 5PF,Chelmsford,mrc2021; ramsay,http://www.brentwoodgazette.co.uk/,free,NA,weekly,essexlive,7,96,E07000070,572116,206972,0.49117699,51.735031,113215.91129173,342997310.005802,Legacy
Brentwood Recorder,Newsquest PLC,WC2A 3LJ; IG1 1UD,Breckland,abc; mrc2021; newsquest; ramsay,http://www.romfordrecorder.co.uk/news/brentwood-news,free,NA,weekly,NA,4,165,E07000143,591015,303330,0.81871599,52.594212,239522.366983952,1305116636.281,Legacy
Brentwood Weekly News,Newsquest PLC,RM17 5EX,Thurrock,htfp_database; lmw; mrc2021; ramsay,http://www.brentwoodweeklynews.co.uk; http://www.brentwoodweeklynews.co.uk/,free,NA,weekly,BrentwoodLive,3,32,E06000034,562123,181590,0.33486101,51.509979,77780.6305595655,184431446.74415,Legacy
Brentwood Yellow Advertiser,Tindle Newspapers Ltd,SS1 1AN,Southend-on-Sea,mrc2021; ramsay,http://www.brentwood-today.co.uk/,free,NA,weekly,NA,3,31,E06000033,587777,186837,0.70692301,51.549171,72409.3721202962,67964151.3295319,Legacy
Bridgnorth Journal,Midland News Association,WV16 4DX,Shropshire,abc; htfp_database; ipso; jicreg; lmw; mna; mrc2021; ramsay,http://www.bridgnorthjournal.com; /tag/bridgnorthjournal/; http://goo.gl/dWrQjP; http://www.bridgnorthjournal.com/,paid,NA,W; weekly,shropshirestar,6,48,E06000051,350227,302960,-2.73667,52.62212,580599.517826254,3197275322.10225,Legacy
Bridgwater Mercury,Newsquest PLC,TA1 4AS; TA6 3EW,Sedgemoor,htfp_database; ipso; jicreg; lmw; mrc2021; newsquest; ramsay,http://www.bridgwatermercury.co.uk; /tag/bridgwater-mercury/; http://www.bridgwatermercury.co.uk; http://www.bridgwatermercury.co.uk/,paid,NA,weekly,NA,2,192,E07000188,338429,143998,-2.8824601,51.19186,203175.549017986,605947533.661341,Legacy
Bridlington Free Press,National World,YO11 1BB,Scarborough,abc; htfp_database; ipso; jicreg; lmw; mrc2021; ramsay,http://www.bridlingtontoday.co.uk; /tag/bridlington-free-press/; https://www.thescarboroughnews.co.uk/; http://www.bridlingtonfreepress.co.uk/,paid,NA,weekly,TheScarboroNews,4,177,E07000168,487119,504929,-0.65851003,54.432339,260888.144834405,755507449.086392,Legacy
Brighouse Echo,National World,HX3 5AX,Calderdale,abc; htfp_database; ipso; jicreg; lmw; mrc2021; ramsay,http://www.brighousetoday.co.uk; /tag/brighouse-echo/; http://www.halifaxcourier.co.uk; http://www.brighouseecho.co.uk/,paid,NA,weekly,HXCourier,3,272,E08000033,402617,424896,-1.96182,53.720482,107684.893783348,363960946.597264,Legacy
Brighton & Hove Independent,National World,NA,Brighton and Hove,ipso; jicreg; mrc2021,NA,NA,NA,NA,NA,5,41,E06000043,530279,106850,-0.15079001,50.8465,58179.730896897,85385921.6308689,Legacy
Brighton Argus,Newsquest PLC,BN1 8AR,Brighton and Hove,mrc2021; ramsay,http://www.theargus.co.uk/,paid,NA,daily,brightonargus,5,41,E06000043,530279,106850,-0.15079001,50.8465,58179.730896897,85385921.6308689,Legacy
Brighton and Hove News,Presumed independent,NA,Brighton and Hove,cj4; htfp_database,https://www.brightonandhovenews.org; https://www.brightonandhovenews.org/,NA,NA,NA,bhcitynews,5,41,E06000043,530279,106850,-0.15079001,50.8465,58179.730896897,85385921.6308689,Independent
Bristol World,Presumed independent,NA,"Bristol, City of",NA,NA,NA,Sep-21,NA,NA,5,23,E06000023,359990,174846,-2.57742,51.471149,145449.691824655,235441930.467042,Independent
Brixton Blog/Bugle,Presumed independent,NA,Lambeth,cj4,https://brixtonblog.com,NA,NA,NA,BrixtonBlog,14,298,E09000022,531117,175629,-0.11386,51.464451,34173.5724937858,27237356.6868511,Independent
Broadway Ham & High,Newsquest PLC,NW3 3HF,Camden,mrc2021; ramsay,http://www.hamhighbroadway.co.uk/home,paid,NA,weekly,hackneygazette,10,283,E09000007,527492,184284,-0.16289,51.54306,26149.495598481,21789308.5952668,Legacy
Bromley News Shopper,Newsquest PLC,BR5 1BT,Bromley,htfp_database; ipso; mrc2021; ramsay,http://www.newsshopper.co.uk/news/bromnews/; http://www.newsshopper.co.uk/news/bromley/,free,NA,weekly,newsshopper,9,282,E09000006,542036,165708,0.039246,51.372669,76141.6277070387,150130427.159217,Legacy
Bromley Times,Newsquest PLC,WC2A 3LJ; IG1 1UD,Camden,htfp_database; lmw; mrc2021; newsquest; ramsay,http://www.bromleytimes.co.uk; https://www.romfordrecorder.co.uk/; http://www.bromleytimes.co.uk/home,free,NA,weekly,BDPost,10,283,E09000007,527492,184284,-0.16289,51.54306,26149.495598481,21789308.5952668,Legacy
Bromsgrove Advertiser,Newsquest PLC,DY8 1PH; DY8 1EH,Dudley,htfp_database; ipso; lmw; mrc2021; newsquest; ramsay,http://www.bromsgroveadvertiser.co.uk; /tag/bromsgrove-advertiser/; http://www.bromsgroveadvertiser.co.uk; http://www.bromsgroveadvertiser.co.uk/,free,NA,weekly,Brom_Advertiser,8,266,E08000027,393191,288584,-2.1017101,52.495129,75372.2907122194,97958229.5123974,Legacy
Bromsgrove Observer,Bullivant Media Ltd,NA,Warwick,mrc2021,NA,NA,NA,NA,NA,10,220,E07000222,428484,267113,-1.58369,52.301418,116714.078810518,282882324.59023,Legacy
Broughton Spurtle,Presumed independent,NA,City of Edinburgh,cj4; htfp_database,http://www.broughtonspurtle.org; http://www.broughtonspurtle.org.uk/,NA,NA,NA,theSpurtle,8,342,S12000036,320193,669417,-3.27826,55.911201,112724.776100732,272887422.95966,Independent
Bubblewrap,Presumed independent,NA,Enfield,NA,NA,NA,Aug-21,NA,NA,3,286,E09000010,532829,196197,-0.081469998,51.64888,41061.1111768429,82200174.2971125,Independent
Buchan Observer,National World,AB42 1JP,Aberdeenshire,htfp_database; ipso; lmw; mrc2021; ramsay,http://www.buchanobserver.com; /tag/buchan-observer/; http://www.buchanobserver.co.uk/,paid,NA,weekly,TheScotsman,13,340,S12000034,352284,816277,-2.7920799,57.234692,791859.815926895,6338657613.85259,Legacy
Buckkinghamshire Live,Presumed independent,NA,Tower Hamlets,NA,NA,NA,Jan-21,NA,NA,2,306,E09000030,536340,181452,-0.03647,51.515541,26810.7357224521,21576472.9117977,Independent
Bucks Free Press (replacing Reach closure of Buckinghamshire Advertiser/Examiner),Newsquest PLC,NA,Buckinghamshire,mrc2021,NA,NA,28/01/2019,NA,NA,1,57,E06000060,482506,208561,-0.80568999,51.769661,361907.474854912,1564937984.73646,Legacy
Bude & Stratton Post,Tindle Newspapers Ltd,EX23 8AT,Cornwall,ipso; mrc2021; ramsay,http://www.bude-today.co.uk/,paid,NA,weekly,ThePostSeries,31,49,E06000052,212497,64493,-4.64254,50.450218,873551.599856103,3611926259.03619,Legacy
Burnham & Highbridge Weekly News,Newsquest PLC,TA6 3EW,Sedgemoor,htfp_database; ipso; jicreg; mrc2021; ramsay,http://www.burnhamandhighbridgeweeklynews.co.uk; http://www.burnhamandhighbridgeweeklynews.co.uk/,paid,NA,weekly,NA,2,192,E07000188,338429,143998,-2.8824601,51.19186,203175.549017986,605947533.661341,Legacy
Burnham Standard,Newsquest PLC,CM7 1JP,Braintree,mrc2021; ramsay,http://www.maldonandburnhamstandard.co.uk/,paid,NA,weekly,maldonstandard,6,93,E07000067,577253,227335,0.57591099,51.91634,168682.860674143,611708022.085835,Legacy
Burnley Express (Burnley),National World,BB11 1DP,Burnley,mrc2021; ramsay,http://www.burnleyexpress.net/,paid,NA,weekly,burnleyexpress,5,139,E07000117,384886,430882,-2.2307999,53.774059,57758.3849479257,110683988.566855,Legacy
Burnley Express (Padiham),National World,BB11 1DP,Burnley,mrc2021; ramsay,http://www.burnleyexpress.net/,paid,NA,weekly,burnleyexpress,5,139,E07000117,384886,430882,-2.2307999,53.774059,57758.3849479257,110683988.566855,Legacy
Burton Mail,Reach PLC,DE14 1LE,East Staffordshire,abc; htfp_database; ipso; jicreg; lmw; mrc2021; ramsay,/tag/burton-mail/; http://www.burtonmail.co.uk; http://www.burtonmail.co.uk/,paid,NA,daily,staffs_live,2,195,E07000193,412601,326569,-1.81438,52.83651,183691.288895756,389987122.842961,Legacy
Bury Mercury,Newsquest PLC,CO10 2EB,Camden,lmw; mrc2021; ramsay,http://www.burymercury.co.uk/home,free,NA,weekly,bktimes,10,283,E09000007,527492,184284,-0.16289,51.54306,26149.495598481,21789308.5952668,Legacy
Bury Mercury (Mildenhall),Newsquest PLC,CO10 2EB,Camden,mrc2021; ramsay,http://www.burymercury.co.uk/home,free,NA,weekly,bktimes,10,283,E09000007,527492,184284,-0.16289,51.54306,26149.495598481,21789308.5952668,Legacy
Bury Times,Newsquest PLC,BL1 1AR,Bolton,htfp_database; ipso; jicreg; lmw; mrc2021; newsquest; ramsay,http://www.burytimes.co.uk; /tag/bury-times/; http://www.burytimes.co.uk; http://www.burytimes.co.uk/,paid,NA,weekly,BuryTimes,4,241,E08000001,368352,409873,-2.4795201,53.584492,82643.5197746866,139792040.674584,Legacy
Buxton Advertiser,National World,SK17 6EG,High Peak,abc; htfp_database; ipso; jicreg; lmw; mrc2021; ramsay,http://www.buxtonadvertiser.co.uk; /tag/buxton-advertiser/; https://www.buxtonadvertiser.co.uk/; http://www.buxtonadvertiser.co.uk/,paid,NA,weekly,Buxton_News,1,76,E07000037,410474,387660,-1.84398,53.385689,159628.494883945,540254001.17195,Legacy
Caernarfon Herald,Reach PLC,LL55 1AG,Gwynedd,mrc2021; ramsay,http://www.dailypost.co.uk/all-about/gwynedd,paid,NA,weekly,northwaleslive,6,354,W06000002,280555,334966,-3.7771499,52.89883,470662.679671257,2619680843.3659,Legacy
Caerphilly Observer,Presumed independent,NA,Caerphilly,cj4; htfp_database; ipso,https://caerphilly.observer; https://caerphilly.observer/,NA,NA,NA,NA,1,368,W06000018,317245,195259,-3.19753,51.650009,116195.727849562,277387807.11228,Independent
Caithness Courier,Iliffe Media,KW1 5ED,Highland,abc; htfp_database; ipso; jicreg; lmw; mrc2021; ramsay,http://www.caithness-courier.co.uk; /tag/caithness-courier/; http://www.johnogroat-journal.co.uk/; http://www.johnogroat-journal.co.uk/Home/,paid,11/12/2019,weekly,GroatNews,10,328,S12000017,241018,858292,-4.6610298,57.586571,4830693.56733473,26473987324.5981,Legacy
Cambrian News,Tindle Newspapers Ltd,SY23 3AH,Ceredigion,abc; htfp_database; jicreg; lmw; mrc2021; ramsay; tindle,http://www.tywyn-today.co.uk/ITW/smalltopframe.cfm; /tag/cambrian-news/; http://www.cambrian-news.co.uk/,paid,NA,weekly,cambriannews,3,359,W06000008,267127,268437,-3.94993,52.297951,330042.078050812,1806698314.531,Legacy
Cambridge Independent,Iliffe Media,NA,Cambridge,illiffe; ipso; lmw; mrc2021; ramsay,http://www.cambridgeindependent.co.uk/home,paid,NA,weekly,CambridgeIndy,2,60,E07000008,545420,257901,0.126436,52.200169,37169.1755199722,40698821.5531483,Legacy
Cambridge News,Reach PLC,CB24 6BQ,South Cambridgeshire,abc; htfp_database; ipso; jicreg; lmw; mrc2021; ramsay,/tag/cambridge-news/; https://www.cambridge-news.co.uk; http://www.cambridge-news.co.uk/,paid,Per website,daily,CambsLive,2,64,E07000012,543295,247586,0.091017,52.108051,256916.188353058,901687092.783795,Legacy
Cambridge News & Crier,Reach PLC,CB24 6BQ,South Cambridgeshire,mrc2021; ramsay,http://www.cambridge-news.co.uk/,free,NA,weekly,CambsLive,2,64,E07000012,543295,247586,0.091017,52.108051,256916.188353058,901687092.783795,Legacy
Camden New Journal,New Journal Enterprises Ltd,NW1 9DR,Camden,htfp_database; jicreg; lmw; mrc2021; ramsay,http://www.camdennewjournal.co.uk; /tag/camden-new-journal/; http://camdennewjournal.com; http://www.camdennewjournal.com/,free,NA,weekly,NA,10,283,E09000007,527492,184284,-0.16289,51.54306,26149.495598481,21789308.5952668,Legacy
Camelford & Delabole Post,Tindle Newspapers Ltd,PL15 7AL,Cornwall,mrc2021; ramsay,http://www.camelford-today.co.uk/,paid,NA,weekly,ThePostSeries,31,49,E06000052,212497,64493,-4.64254,50.450218,873551.599856103,3611926259.03619,Legacy
Campbeltown Courier,Wyvex Media Ltd,PA28 6AE,Argyll and Bute,ipso; lmw; mrc2021; ramsay,https://www.campbeltowncourier.co.uk; http://www.campbeltowncourier.co.uk/,paid,NA,weekly,campbeltowncour,5,341,S12000035,200740,715443,-5.2211399,56.28944,3638663.64261861,7166073871.16255,Legacy
Cannock Mercury,Reach PLC,B78 3LZ,Tamworth,mrc2021; ramsay,http://www.cannockmercury.co.uk/,free,NA,weekly,birmingham_live,2,201,E07000199,421455,302550,-1.68451,52.620312,30729.4523914775,30850724.0119237,Legacy
Carluke Gazette,National World,ML11 9DS,South Lanarkshire,htfp_database; ipso; mrc2021; ramsay,http://www.carluketoday.co.uk; http://www.carlukegazette.co.uk/,paid,NA,weekly,GlasgowWorldUK,6,337,S12000029,284634,636071,-3.83272,55.60453,284597.023353438,1774015373.08336,Legacy
Carmarthen Journal,Reach PLC,SA31 1BN,Carmarthenshire,abc; htfp_database; ipso; jicreg; lmw; mrc2021; ramsay,http://www.carmarthenjournal.co.uk; /tag/carmarthen-journal/; http://www.carmarthenjournal.co.uk; http://www.carmarthenjournal.co.uk/,paid,NA,weekly,WalesOnline,6,361,W06000010,247954,224133,-4.2111001,51.894951,362998.534035864,2440243290.60243,Legacy
Carmarthenshire Herald,Herald News International,NA,Carmarthenshire,mrc2021,NA,NA,NA,NA,NA,6,361,W06000010,247954,224133,-4.2111001,51.894951,362998.534035864,2440243290.60243,Legacy
Carrick Gazette & Girvan News,National World,KA26 9AE,South Ayrshire,mrc2021; ramsay,http://www.carricktoday.co.uk/,paid,NA,weekly,TheScotsman,4,336,S12000028,226545,596271,-4.7289901,55.23008,333361.899935424,1234683487.54363,Legacy
Carrick Herald,Newsquest PLC,KA22 8BP; KA22 8DA,North Ayrshire,lmw; mrc2021; newsquest; ramsay,http://www.carrickherald.com; http://www.carrickherald.com/,paid,NA,weekly,ayradvertiser,8,332,S12000021,228996,651640,-4.7245998,55.72789,352531.623020533,903842513.598754,Legacy
Carrick Post,Reach PLC,KA7 1PX,South Ayrshire,mrc2021; ramsay,http://www.dailyrecord.co.uk/all-about/ayr,paid,NA,weekly,Daily_Record,4,336,S12000028,226545,596271,-4.7289901,55.23008,333361.899935424,1234683487.54363,Legacy
"Castle Point, Rayleigh & Rochford Standard",Newsquest PLC,SS1 1AN,Southend-on-Sea,mrc2021; ramsay,http://www.southendstandard.co.uk/,free,NA,weekly,Essex_Echo,3,31,E06000033,587777,186837,0.70692301,51.549171,72409.3721202962,67964151.3295319,Legacy
Catford Mercury (South London Press),Tindle Newspapers Ltd,NA,Lambeth,mrc2021,NA,NA,NA,NA,NA,14,298,E09000022,531117,175629,-0.11386,51.464451,34173.5724937858,27237356.6868511,Legacy
Central Fife Times & Advertiser,Newsquest PLC,KY11 8QS,Fife,ipso; jicreg; mrc2021; ramsay,http://www.centralfifetimes.com/,paid,NA,weekly,fifetimes,10,349,S12000047,339187,704721,-2.9825101,56.231121,365662.212588176,1372428426.10165,Legacy
Central Somerset Gazette,Reach PLC,BA5 1UH,Mendip,htfp_database; mrc2021; ramsay,http://www.centralsomersetgazette.co.uk/; /tag/central-somerset-gazette/; http://www.centralsomersetgazette.co.uk/,paid,NA,weekly,somersetlive,5,191,E07000187,362238,144090,-2.54178,51.194759,198844.392404698,739435455.841386,Legacy
Ceredigion Herald,Herald News International,NA,Ceredigion,mrc2021,NA,NA,NA,NA,NA,3,359,W06000008,267127,268437,-3.94993,52.297951,330042.078050812,1806698314.531,Legacy
Chard & Ilminster News,Newsquest PLC,TA1 4AS; TA20 1PH,South Somerset,htfp_database; ipso; jicreg; mrc2021; newsquest; ramsay,http://www.chardandilminsternews.co.uk; http://www.chardandilminsternews.co.uk/,paid,NA,weekly,chardandilynews,6,193,E07000189,345633,120798,-2.7758801,50.98399,240841.63971165,959070917.2185,Legacy
Charlton Champion,Presumed independent,NA,Greenwich,cj4; htfp_database,https://charltonchampion.co.uk; https://charltonchampion.co.uk/,NA,NA,NA,hashtag,2,287,E09000011,542507,175879,0.050092999,51.46394,45482.7375242832,50439344.6325748,Independent
Cheadle & Tean Times,Cheadle and Tean Times Ltd,ST10 1BD,Stoke-on-Trent,mrc2021; ramsay,http://www.timesechoandlife.co.uk/,paid,NA,weekly,timesandecho,5,21,E06000021,389438,346652,-2.15888,53.017071,63971.3417170553,93448551.6494072,Legacy
Cheddar Valley Gazette,Reach PLC,BA5 1UH,Mendip,htfp_database; mrc2021; ramsay,http://www.cheddarvalleygazette.co.uk/,paid,NA,weekly,somersetlive,5,191,E07000187,362238,144090,-2.54178,51.194759,198844.392404698,739435455.841386,Legacy
Chelmsford Weekly News,Newsquest PLC,RM17 5EX,Thurrock,htfp_database; ipso; mrc2021; newsquest; ramsay,http://www.chelmsfordweeklynews.co.uk; http://www.chelmsfordweeklynews.co.uk/,free,NA,weekly,ChelmsfordTimes,3,32,E06000034,562123,181590,0.33486101,51.509979,77780.6305595655,184431446.74415,Legacy
Chelsea News,Street Runners Ltd,SE20 7TS,Bromley,mrc2021; ramsay,http://www.londonweeklynews.co.uk/news/westminsterPimlico/,free,18/07/2017,weekly,NA,9,282,E09000006,542036,165708,0.039246,51.372669,76141.6277070387,150130427.159217,Legacy
Cheltenham Live,Presumed independent,NA,Cheltenham,NA,NA,NA,Mar-21,NA,NA,3,104,E07000078,394925,222232,-2.07515,51.898609,38220.6903355067,46596063.9630439,Independent
Chepstow Beacon,Tindle Newspapers Ltd,NP25 3XJ,Monmouthshire,ipso; lmw; mrc2021; ramsay,http://www.chepstowbeacon.co.uk/,paid,NA,weekly,chepbeacon,3,371,W06000021,337812,209231,-2.9028001,51.778271,250870.543419591,886044959.883788,Legacy
Chester & District Standard,Newsquest PLC,CH7 1XY,Flintshire,mrc2021; ramsay,http://www.chesterstandard.co.uk/,free,NA,weekly,standardchester,11,357,W06000005,321134,369280,-3.1824801,53.21471,143111.97070364,489500774.219026,Legacy
Chester Chronicle,Reach PLC,CH1 4RN,Cheshire West and Chester,abc; htfp_database; jicreg; lmw; mrc2021; ramsay; reach,/tag/chester-chronicle/; http://www.chesterchronicle.co.uk; http://www.chesterchronicle.co.uk/,paid,NA,weekly,CheshireLive,13,47,E06000050,353097,363145,-2.70298,53.163361,258505.194644102,941207319.798833,Legacy
Chester-le-Street Advertiser,Newsquest PLC,DL1 1NF,Darlington,ipso; lmw; mrc2021; ramsay,http://www.chesterlestreetadvertiser.co.uk/,paid,NA,weekly,TheNorthernEcho,9,5,E06000005,428029,515648,-1.56835,54.535339,107202.299425244,197477753.555023,Legacy
Chichester Observer,National World,PO19 1JN,Chichester,abc; htfp_database; ipso; lmw; mrc2021; ramsay,http://www.chiobserver.co.uk; /tag/chichester-observer/; http://www.chichester.co.uk; http://www.chichester.co.uk/,paid,NA,weekly,Sussex_World,2,223,E07000225,490285,116600,-0.71630001,50.941769,170427.55667459,812415119.661381,Legacy
Chorley Guardian,National World,PR2 9ZA,Preston,abc; htfp_database; ipso; lmw; mrc2021; ramsay,http://www.chorleytoday.co.uk; https://www.lep.co.uk/; http://www.chorley-guardian.co.uk/,paid,NA,weekly,leponline,5,145,E07000123,352825,436432,-2.7180901,53.822021,71117.987874445,142944810.106093,Legacy
Chronicle Week (Cannock),Midland News Association,NA,Wolverhampton,mrc2021,NA,NA,NA,NA,NA,6,270,E08000031,391463,300016,-2.12746,52.597881,56050.1278266088,69436685.126745,Legacy
Chronicle Week (Dudley),Midland News Association,NA,Dudley,mrc2021,NA,NA,NA,NA,NA,8,266,E08000027,393191,288584,-2.1017101,52.495129,75372.2907122194,97958229.5123974,Legacy
Chronicle Week (Sandwell),Midland News Association,NA,Sandwell,mrc2021,NA,NA,NA,NA,NA,2,267,E08000028,399573,290764,-2.00771,52.514771,59201.685245006,85558906.1867164,Legacy
Chronicle Week (Walsall),Midland News Association,NA,Wolverhampton,mrc2021,NA,NA,NA,NA,NA,6,270,E08000031,391463,300016,-2.12746,52.597881,56050.1278266088,69436685.126745,Legacy
Chronicle Week (Wolverhampton),Midland News Association,NA,Wolverhampton,mrc2021,NA,NA,NA,NA,NA,6,270,E08000031,391463,300016,-2.12746,52.597881,56050.1278266088,69436685.126745,Legacy
Chronicle Xtra - Chester,Reach PLC,CH1 4RN,Cheshire West and Chester,mrc2021; ramsay,http://www.chesterchronicle.co.uk/,free,NA,weekly,CheshireLive,13,47,E06000050,353097,363145,-2.70298,53.163361,258505.194644102,941207319.798833,Legacy
Chronicle Xtra - South Cheshire,Reach PLC,CH1 4RN,Cheshire West and Chester,mrc2021; ramsay,http://www.crewechronicle.co.uk/,free,NA,weekly,CheshireLive,13,47,E06000050,353097,363145,-2.70298,53.163361,258505.194644102,941207319.798833,Legacy
City Matters,City Publishing Ltd,NA,City of London,mrc2021; ramsay,http://citymatters.london/,free,NA,weekly,city_matters,2,277,E09000001,532381,181359,-0.093529999,51.515652,9615.49873267278,3147460.27332605,Legacy
Clacton Gazette,Newsquest PLC,CO15 1QL,Tendring,ipso; mrc2021; ramsay,http://www.clactonandfrintongazette.co.uk/,paid,NA,weekly,NA,4,102,E07000076,614190,222141,1.108981,51.856739,99196.0018990169,366182684.386463,Legacy
Clanfield Post,Tindle Newspapers Ltd,GU32 3JR,East Hampshire,mrc2021; ramsay,http://www.clanfieldpost.co.uk/,free,NA,weekly,NA,11,111,E07000085,474405,129237,-0.93970001,51.057652,144529.50155922,514427244.742776,Legacy
Clitheroe Advertiser & Times,National World,BB7 1AZ,Ribble Valley,abc; htfp_database; jicreg; mrc2021; ramsay,http://www.clitheroetoday.co.uk/newsfront.aspx?sectionid=9; http://www.clitheroeadvertiser.co.uk/,paid,NA,weekly,burnleyexpress,1,146,E07000124,372687,447676,-2.4173999,53.9245,150567.848726776,584462410.815407,Legacy
Clydebank Post,Newsquest PLC,G2 3QB; G81 4XJ,West Dunbartonshire,htfp_database; ipso; jicreg; lmw; mrc2021; newsquest; ramsay,/tag/clydebank-post/; http://www.clydebankpost.co.uk; http://www.clydebankpost.co.uk/,paid,NA,weekly,clydebankpost,6,344,S12000039,242904,681586,-4.52074,56.0014,84804.5167625484,182782222.654484,Legacy
Coastal Scene,Newsquest PLC,IP13 9EZ,Camden,mrc2021; ramsay,http://www.coastalscene24.co.uk/home,free,NA,weekly,NA,10,283,E09000007,527492,184284,-0.16289,51.54306,26149.495598481,21789308.5952668,Legacy
Colchester Gazette,Newsquest PLC,CO4 9XP,Colchester,htfp_database; jicreg; lmw; mrc2021; ramsay,/tag/colchester-gazette/; http://www.gazette-news.co.uk; http://www.gazette-news.co.uk/,paid,NA,daily,TheGazette,2,97,E07000071,596944,223693,0.85977697,51.877022,131019.693361933,346773262.039531,Legacy
Colne Times,National World,BB11 1DP,Burnley,htfp_database; ipso; lmw; mrc2021; ramsay,http://www.pendletoday.co.uk/; https://www.burnleyexpress.net/topic/colne,paid,NA,weekly,burnleyexpress,5,139,E07000117,384886,430882,-2.2307999,53.774059,57758.3849479257,110683988.566855,Legacy
Congleton Chronicle,Heads (Congleton),CW12 1BW,Cheshire East,htfp_database; lmw; mrc2021; ramsay,http://www.chronicleseries.com; /tag/congleton-chronicle/; http://www.chronicleseries.com; http://www.chronicleseries.com/Contact-Us,paid,NA,weekly,CongletonChron,5,46,E06000049,380510,363462,-2.29299,53.167931,301202.123887001,1166357340.22482,Legacy
Consett & Stanley Advertiser,Newsquest PLC,DL1 1NF,Darlington,htfp_database; ipso; mrc2021; ramsay,http://www.thisisthenortheast.co.uk/the_north_east/consett/news/index.html; http://www.consettstanleyadvertiser.co.uk/,free,NA,weekly,TheNorthernEcho,9,5,E06000005,428029,515648,-1.56835,54.535339,107202.299425244,197477753.555023,Legacy
Cornish & Devon Post,Tindle Newspapers Ltd,PL15 7AL,Cornwall,abc; ipso; mrc2021; ramsay; tindle,http://www.launceston-today.co.uk/,paid,NA,weekly,ThePostSeries,31,49,E06000052,212497,64493,-4.64254,50.450218,873551.599856103,3611926259.03619,Legacy
Cornish Guardian (Bodmin & District),Reach PLC,TR1 1QH,Cornwall,mrc2021; ramsay,http://www.westbriton.co.uk/,paid,NA,weekly,cornwalllive,31,49,E06000052,212497,64493,-4.64254,50.450218,873551.599856103,3611926259.03619,Legacy
Cornish Guardian (Lostwithiel & Foney),Reach PLC,TR1 1QH,Cornwall,mrc2021; ramsay,http://www.westbriton.co.uk/,paid,NA,weekly,cornwalllive,31,49,E06000052,212497,64493,-4.64254,50.450218,873551.599856103,3611926259.03619,Legacy
Cornish Guardian (Newquay),Reach PLC,TR1 1QH,Cornwall,mrc2021; ramsay,http://www.westbriton.co.uk/,paid,NA,weekly,cornwalllive,31,49,E06000052,212497,64493,-4.64254,50.450218,873551.599856103,3611926259.03619,Legacy
Cornish Guardian (North Cornwall),Reach PLC,TR1 1QH,Cornwall,mrc2021; ramsay,http://www.westbriton.co.uk/,paid,NA,weekly,cornwalllive,31,49,E06000052,212497,64493,-4.64254,50.450218,873551.599856103,3611926259.03619,Legacy
Cornish Guardian (South East),Reach PLC,TR1 1QH,Cornwall,mrc2021; ramsay,http://www.westbriton.co.uk/,paid,NA,weekly,cornwalllive,31,49,E06000052,212497,64493,-4.64254,50.450218,873551.599856103,3611926259.03619,Legacy
Cornish Guardian (St Austell),Reach PLC,TR1 1QH,Cornwall,mrc2021; ramsay,http://www.westbriton.co.uk/,paid,NA,weekly,cornwalllive,31,49,E06000052,212497,64493,-4.64254,50.450218,873551.599856103,3611926259.03619,Legacy
Cornish Guardian (Wadebridge & Padstow),Reach PLC,TR1 1QH,Cornwall,mrc2021; ramsay,http://www.westbriton.co.uk/,paid,NA,weekly,cornwalllive,31,49,E06000052,212497,64493,-4.64254,50.450218,873551.599856103,3611926259.03619,Legacy
Cornish Stuff,Presumed independent,NA,Cornwall,cj4; htfp_database,https://cornishstuff.com; https://cornishstuff.com/,NA,NA,NA,cornishstuff,31,49,E06000052,212497,64493,-4.64254,50.450218,873551.599856103,3611926259.03619,Independent
Cornish Times,Tindle Newspapers Ltd,PL14 6AH,Cornwall,abc; htfp_database; ipso; jicreg; lmw; mrc2021; ramsay; tindle,http://www.liskeard-today.co.uk/IT/smalltopframe.cfm; /tag/cornish-times/; http://www.cornish-times.co.uk; http://www.liskeard-today.co.uk/,paid,NA,weekly,cornishtimes,31,49,E06000052,212497,64493,-4.64254,50.450218,873551.599856103,3611926259.03619,Legacy
Cornwall Reports,Presumed independent,NA,Cornwall,cj4; htfp_database; impress,https://cornwallreports.co.uk; https://cornwallreports.co.uk/,NA,NA,NA,GrahamSmithCR,31,49,E06000052,212497,64493,-4.64254,50.450218,873551.599856103,3611926259.03619,Independent
"Corwen, Bala & Llangollen Free Press",Newsquest PLC,CH7 1XY,Flintshire,mrc2021; ramsay,http://www.denbighshirefreepress.co.uk/,paid,NA,weekly,DenbighshireFP,11,357,W06000005,321134,369280,-3.1824801,53.21471,143111.97070364,489500774.219026,Legacy
Cotswold Journal,Newsquest PLC,WR5 2JG; GL7 2PW,Cotswold,htfp_database; ipso; lmw; mrc2021; newsquest; ramsay,http://www.cotswoldjournal.co.uk; /tag/cotswold-journal/; http://www.cotswoldjournal.co.uk; http://www.wiltsglosstandard.co.uk/,paid,NA,weekly,WiltsAndGlosStd,3,105,E07000079,402125,208209,-1.97059,51.772549,332430.632142207,1164524434.80987,Legacy
County Echo,Tindle Newspapers Ltd,SA65 9AP,Pembrokeshire,htfp_database; lmw; mrc2021; ramsay,http://www.fishguard-today.co.uk/ITW/smalltopframe.cfm; http://www.countyecho.co.uk; http://www.countyecho.co.uk/,paid,NA,weekly,tenbyobserver,7,360,W06000009,199821,221392,-4.9081802,51.855129,569499.32490954,1651199087.15189,Legacy
County Times (Powys),Newsquest PLC,NA,Powys,mrc2021,NA,NA,NA,NA,NA,4,373,W06000023,302329,273255,-3.4353099,52.34864,606515.519241378,5195456366.21824,Legacy
Courier & Advertiser (Dundee),DC Thomson & Company Limited,DD4 8SL,Dundee City,mrc2021; ramsay,http://www.thecourier.co.uk/,paid,NA,daily,thecourieruk,2,347,S12000042,340291,732145,-2.9709499,56.4776,51039.8656407906,62410281.6106365,Legacy
Coventry Observer,Bullivant Media Ltd,CV32 4BL,Warwick,abc; htfp_database; jicreg; lmw; mrc2021; ramsay,http://www.coventryobserver.co.uk; /tag/coventry-observer/; http://www.coventryobserver.co.uk/; http://coventryobserver.co.uk/,free,NA,weekly,NA,10,220,E07000222,428484,267113,-1.58369,52.301418,116714.078810518,282882324.59023,Legacy
Coventry Telegraph,Reach PLC,CV1 4LY,Coventry,abc; htfp_database; ipso; jicreg; lmw; mrc2021; ramsay; reach,/tag/coventry-telegraph/; http://www.coventrytelegraph.net; http://www.coventrytelegraph.net/,paid,NA,daily,live_coventry,1,265,E08000026,432807,279689,-1.51908,52.41423,54052.4494128152,98639088.6565498,Legacy
Craven Herald & Pioneer,Newsquest PLC,BD23 1JU,Craven,ipso; jicreg; mrc2021; ramsay,http://www.cravenherald.co.uk/,paid,NA,weekly,CravenHerald,3,172,E07000163,389513,461989,-2.16168,54.053761,199881.375346452,1178807535.35562,Legacy
Crawley Observer,National World,RH10 1XX,Crawley,abc; htfp_database; ipso; jicreg; lmw; mrc2021; ramsay,/tag/crawley-observer/; http://www.crawleyobserver.co.uk; http://www.crawleyobserver.co.uk/,paid,NA,weekly,Sussex_World,3,224,E07000226,526390,137581,-0.19532999,51.123569,38798.5820994218,44971227.3987444,Legacy
Crediton Courier,Tindle Newspapers Ltd,EX17 3LF,Mid Devon,abc; jicreg; lmw; mrc2021; ramsay; tindle,http://www.creditoncourier.co.uk/; http://www.creditoncouriernewspaper.co.uk/,paid,NA,weekly,creditoncourier,2,81,E07000042,288064,108911,-3.5921199,50.86882,246619.148115469,912900687.436988,Legacy
Crewe Chronicle,Reach PLC,CH1 4RN,Cheshire West and Chester,abc; htfp_database; ipso; jicreg; lmw; mrc2021; ramsay; reach,/tag/crewe-chronicle/; http://www.crewechronicle.co.uk; http://www.crewechronicle.co.uk/,paid,NA,weekly,CheshireLive,13,47,E06000050,353097,363145,-2.70298,53.163361,258505.194644102,941207319.798833,Legacy
Crewe Guardian,Newsquest PLC,CW9 5HB,Cheshire West and Chester,htfp_database; mrc2021; ramsay,http://www.creweguardian.co.uk; http://www.creweguardian.co.uk/,free,NA,weekly,NorthwichNews,13,47,E06000050,353097,363145,-2.70298,53.163361,258505.194644102,941207319.798833,Legacy
Crosby & Bootle Star,Reach PLC,L69 3EB,Liverpool,mrc2021; ramsay,http://www.liverpoolecho.co.uk/all-about/crosby,free,NA,weekly,LivEchonews,11,252,E08000012,339361,390553,-2.91364,53.408298,67266.4172620812,133533748.841649,Legacy
Crosby & Litherland Champion,Waypride Ltd,PR9 0QA,Sefton,mrc2021; ramsay,http://www.champnews.com/,free,NA,weekly,NA,9,254,E08000014,334282,398832,-2.99177,53.482101,115703.659536219,202462446.366116,Legacy
Crowborough Life,Presumed independent,NA,Wealden,cj4; impress,https://crowboroughlife.com,NA,NA,NA,CrowboroughLife,3,91,E07000065,555048,117180,0.205156,50.93322,218977.416566408,836160747.637603,Independent
Croydon Advertiser,Reach PLC,RH1 1QT,Reigate and Banstead,abc; htfp_database; jicreg; lmw; mrc2021; ramsay,http://www.croydonadvertiser.co.uk/index.jsp; /tag/croydon-advertiser/; http://www.croydonadvertiser.co.uk; http://www.croydonadvertiser.co.uk/,paid,NA,weekly,myldn,4,209,E07000211,525786,152574,-0.19870999,51.258461,79917.0905767467,129143817.748342,Legacy
Cumberland & Westmorland Herald,Barrnon Media,CA11 7AH,Eden,htfp_database; ipso; jicreg; mrc2021; ramsay,http://www.cwherald.com/home.html; http://www.cwherald.com/,paid,21/02/2020,weekly,CWHerald,2,69,E07000030,359636,526396,-2.62678,54.631069,268766.165774267,2156479430.46457,Legacy
Cumbernauld News,National World,G67 1BU,North Lanarkshire,htfp_database; ipso; mrc2021; ramsay,http://www.cumbernauldtoday.co.uk; http://www.cumbernauld-news.co.uk/,paid,NA,weekly,GlasgowWorldUK,5,352,S12000050,277984,665608,-3.9514,55.868141,163983.319889321,472298223.95542,Legacy
Cumbria Crack,Presumed independent,NA,Eden,cj4,https://cumbriacrack.com,NA,NA,NA,CumbriaCrack,2,69,E07000030,359636,526396,-2.62678,54.631069,268766.165774267,2156479430.46457,Independent
Cumnock Chronicle & Muirkirk Advertiser,Newsquest PLC,KA18 1ED,East Ayrshire,jicreg; mrc2021; ramsay,http://www.cumnockchronicle.com/,paid,NA,weekly,cumnockchron,1,323,S12000008,255398,624935,-4.2905698,55.496738,341126.501410665,1270345623.57427,Legacy
Cynon Valley Leader,Reach PLC,CF10 1XR,Cardiff,abc; htfp_database; ipso; lmw; mrc2021; ramsay,http://icwales.icnetwork.co.uk/0100news; /tag/cynon-valley-leader/; http://goo.gl/dgEQLo; http://www.walesonline.co.uk/all-about/cynon-valley,paid,NA,weekly,WalesOnline,9,366,W06000015,315272,178887,-3.22209,51.502541,70140.1456385469,149444861.046783,Legacy
Daily Post - Conwy,Reach PLC,LL31 9SL,Conwy,mrc2021; ramsay,http://www.dailypost.co.uk/,paid,NA,daily,northwaleslive,3,355,W06000003,283293,362563,-3.74646,53.147388,241832.154567041,1149211627.68346,Legacy
Darlington & Stockton Times,Newsquest PLC,DL1 1NF,Darlington,ipso; jicreg; mrc2021; ramsay,http://www.darlingtonandstocktontimes.co.uk/,paid,NA,weekly,DAndSTimes,9,5,E06000005,428029,515648,-1.56835,54.535339,107202.299425244,197477753.555023,Legacy
Darlington Live,Presumed independent,NA,Darlington,NA,NA,NA,Jul-21,NA,NA,9,5,E06000005,428029,515648,-1.56835,54.535339,107202.299425244,197477753.555023,Independent
"Darlington, Aycliffe & Sedgefield Advertiser",Newsquest PLC,DL1 1NF,Darlington,mrc2021; ramsay,http://www.darlingtonaycliffesedgefieldadvertiser.co.uk/,free,NA,weekly,TheNorthernEcho,9,5,E06000005,428029,515648,-1.56835,54.535339,107202.299425244,197477753.555023,Legacy
Dartford & Swanley News Shopper,Newsquest PLC,BR5 1BT,Bromley,mrc2021; ramsay,http://www.newsshopper.co.uk/news/dartford_swanley/,free,NA,weekly,newsshopper,9,282,E09000006,542036,165708,0.039246,51.372669,76141.6277070387,150130427.159217,Legacy
Dartford Messenger,Iliffe Media,DA11 0BQ,Gravesham,htfp_database; lmw; mrc2021; ramsay,/tag/dartford-messenger/; http://www.kentonline.co.uk/dartford/,paid,NA,weekly,KMDartford,3,131,E07000109,566969,169114,0.39874399,51.396488,59359.6760589332,104958772.581249,Legacy
Dartmouth Chronicle,Tindle Newspapers Ltd,TQ6 9QB,South Hams,abc; htfp_database; ipso; lmw; mrc2021; ramsay,http://www.dartmouth-today.co.uk/IT/index2.cfm; /tag/dartmouth-chronicle/; http://www.dartmouth-today.co.uk/,paid,NA,weekly,NewsSouthHams,4,83,E07000044,270676,54036,-3.8199601,50.371948,349372.92257591,905130476.490632,Legacy
Dawlish Gazette,Tindle Newspapers Ltd,EX7 9LQ,Teignbridge,abc; ipso; lmw; mrc2021; ramsay,http://www.dawlishnewspapers.co.uk; http://www.dawlishnewspapers.co.uk/,paid,NA,weekly,dawlishgaz,10,84,E07000045,283144,80205,-3.65289,50.60981,161961.522520559,680052721.300995,Legacy
Dawlish Nub News,Presumed independent,NA,Teignbridge,NA,NA,NA,Oct-20,NA,NA,10,84,E07000045,283144,80205,-3.65289,50.60981,161961.522520559,680052721.300995,Independent
Dawlish Post,Tindle Newspapers Ltd,TQ12 1NE,Teignbridge,lmw; mrc2021; ramsay,http://www.dawlish-today.co.uk/,free,NA,weekly,dawlishgaz,10,84,E07000045,283144,80205,-3.65289,50.60981,161961.522520559,680052721.300995,Legacy
Dearne Valley Weekender,Regional Media Ltd,S64 9AU,Doncaster,jicreg; lmw; mrc2021; ramsay,http://www.rotherhamadvertiser.co.uk; http://www.rotherhamadvertiser.co.uk/,free,NA,weekly,rotherhamtiser,3,257,E08000017,459167,403735,-1.10894,53.52697,135202.573544651,568535459.386684,Legacy
Deeside Piper and Herald,National World,AB31 5SE,Aberdeenshire,ipso; lmw; mrc2021; ramsay,http://www.deesidepiper.co.uk/,paid,NA,weekly,TheScotsman,13,340,S12000034,352284,816277,-2.7920799,57.234692,791859.815926895,6338657613.85259,Legacy
Deeside.com,Presumed independent,NA,Flintshire,cj4; htfp_database,http://www.deeside.com; http://www.deeside.com/,NA,NA,NA,deesidedotcom,11,357,W06000005,321134,369280,-3.1824801,53.21471,143111.97070364,489500774.219026,Independent
Denbighshire Free Press,Newsquest PLC,CH7 1XY,Flintshire,htfp_database; ipso; jicreg; lmw; mrc2021; newsquest; ramsay,http://www.denbighshirefreepress.co.uk; /tag/denbighshire-free-press/; http://www.denbighshirefreepress.co.uk; http://www.denbighshirefreepress.co.uk/,paid,NA,weekly,DenbighshireFP,11,357,W06000005,321134,369280,-3.1824801,53.21471,143111.97070364,489500774.219026,Legacy
Derby News,Presumed independent,NA,Derby,cj4; htfp_database; impress,https://derbynews.org; https://derbynews.org.uk/,NA,NA,NA,NA,3,15,E06000015,435609,335375,-1.47189,52.914639,50036.3185804889,78031107.3558926,Independent
Derby Telegraph,Reach PLC,DE1 2PB,Derby,abc; htfp_database; ipso; jicreg; lmw; mrc2021; ramsay,/tag/derby-telegraph/; http://www.derbytelegraph.co.uk; http://www.derbytelegraph.co.uk/,paid,NA,daily,derbyshire_live,3,15,E06000015,435609,335375,-1.47189,52.914639,50036.3185804889,78031107.3558926,Legacy
Derbyshire Times,National World,S40 2WG,Chesterfield,abc; htfp_database; ipso; lmw; mrc2021; ramsay,http://www.derbyshiretimes.co.uk; /tag/derbyshire-times/; http://www.derbyshiretimes.co.uk; http://www.derbyshiretimes.co.uk/,paid,NA,weekly,D_Times,2,73,E07000034,440049,373359,-1.40115,53.255749,52615.4706045034,66035323.1430878,Legacy
Dereham Times,Newsquest PLC,NR19 1DZ,Camden,ipso; mrc2021; ramsay,http://www.derehamtimes.co.uk/home,paid,NA,weekly,cambstimes,10,283,E09000007,527492,184284,-0.16289,51.54306,26149.495598481,21789308.5952668,Legacy
Devon Live,Presumed independent,NA,Plymouth,NA,NA,NA,Jun-21,NA,NA,5,26,E06000026,249945,58255,-4.1129699,50.404942,63584.4674179895,84369818.632876,Independent
Dewsbury & Mirfield Reporter,National World,LS12 1BE,Leeds,mrc2021; ramsay,http://www.dewsburyreporter.co.uk/,paid,NA,weekly,DewsReporter,10,274,E08000035,432528,436384,-1.50736,53.822731,161516.600530211,551706498.093345,Legacy
Didcot Herald,Newsquest PLC,OX2 0EJ,Oxford,htfp_database; lmw; mrc2021; ramsay,http://www.didcotherald.co.uk; http://goo.gl/Zsm4oQ; http://www.heraldseries.co.uk/news/hswantagenews/,paid,NA,weekly,NA,11,187,E07000178,452277,206368,-1.24405,51.753571,34993.844626057,45602825.5071329,Legacy
Diss Express,Iliffe Media,IP22 4AE,South Norfolk,abc; htfp_database; illiffe; ipso; jicreg; lmw; mrc2021; ramsay,http://www.disstoday.co.uk/; /tag/diss-express/; http://www.dissexpress.co.uk; http://www.dissexpress.co.uk/,paid,NA,weekly,Diss_Express,5,171,E07000149,628990,295823,1.373233,52.51218,231379.2255872,908906500.68074,Legacy
Doncaster Free Press,National World,DN1 1TP,Doncaster,abc; htfp_database; ipso; jicreg; lmw; mrc2021; ramsay,http://www.doncasteronline.co.uk; /tag/doncaster-free-press/; http://www.doncasterfreepress.co.uk; http://www.doncasterfreepress.co.uk/,paid,NA,weekly,DonnyFreePress,3,257,E08000017,459167,403735,-1.10894,53.52697,135202.573544651,568535459.386684,Legacy
Donside Piper and Herald,National World,AB31 5SE,Aberdeenshire,ipso; lmw; mrc2021; ramsay,http://www.donsidepiper.co.uk/,paid,NA,weekly,TheScotsman,13,340,S12000034,352284,816277,-2.7920799,57.234692,791859.815926895,6338657613.85259,Legacy
Dorchester Nub News,Presumed independent,NA,Dorset,NA,NA,NA,Jan-21,NA,NA,7,56,E06000059,370871,99796,-2.41467,50.79697,416747.921161857,2521074343.71083,Independent
Dorking Advertiser,Reach PLC,RH1 1QT,Reigate and Banstead,htfp_database; ipso; mrc2021; ramsay,/tag/dorking-advertiser/; http://www.dorkingandleatherheadadvertiser.co.uk/,paid,NA,weekly,SurreyLive,4,209,E07000211,525786,152574,-0.19870999,51.258461,79917.0905767467,129143817.748342,Legacy
Dover Mercury,Iliffe Media,CT14 6EX,Dover,htfp_database; illiffe; lmw; mrc2021; ramsay,/tag/dover-mercury/; http://www.kentonline.co.uk/dover/; http://www.kentonline.co.uk/deal/,paid,NA,weekly,KentishExpress,2,130,E07000108,628964,150942,1.2768871,51.211761,117252.015144093,320781018.558195,Legacy
Down News,Presumed independent,NA,"Newry, Mourne and Down",cj4; htfp_database; impress,https://downnews.co.uk; https://downnews.co.uk/,NA,NA,NA,downnewsltd,2,319,N09000010,133006,480432,-6.0889101,54.149529,379481.254915993,1682340596.67205,Independent
Droitwich Advertiser,Newsquest PLC,DY8 1PH; DY8 1EH,Dudley,htfp_database; mrc2021; newsquest; ramsay,http://www.droitwichadvertiser.co.uk; http://www.droitwichadvertiser.co.uk/,free,NA,weekly,worcesternews,8,266,E08000027,393191,288584,-2.1017101,52.495129,75372.2907122194,97958229.5123974,Legacy
Droitwich Standard,Bullivant Media Ltd,B98 8BP,Redditch,htfp_database; lmw; mrc2021; ramsay,/tag/droitwich-standard/; http://www.droitwichstandard.co.uk/; http://droitwichstandard.co.uk/,free,NA,weekly,DroitStand,6,230,E07000236,403705,265253,-1.9471,52.285412,41300.3373143932,54250908.2602637,Legacy
Dudley News,Newsquest PLC,DY8 1PH; DY8 1EH,Dudley,htfp_database; ipso; lmw; mrc2021; newsquest; ramsay,http://www.dudleynews.co.uk; http://www.dudleynews.co.uk/,free,NA,weekly,DudleyNews1,8,266,E08000027,393191,288584,-2.1017101,52.495129,75372.2907122194,97958229.5123974,Legacy
Dulwich Diverter,Presumed independent,NA,Southwark,cj4; htfp_database,https://dulwichdiverter.tumblr.com; http://dulwichdiverter.tumblr.com/,NA,NA,NA,share,5,304,E09000028,533945,175863,-0.073090002,51.465889,33625.5095887246,29921640.0728822,Independent
Dumbarton Vale of Leven Reporter,Newsquest PLC,G81 4XJ,West Dunbartonshire,jicreg; mrc2021; ramsay,http://www.dumbartonreporter.co.uk/,paid,NA,weekly,dumbartonreport,6,344,S12000039,242904,681586,-4.52074,56.0014,84804.5167625484,182782222.654484,Legacy
Dumfries & Galloway Standard,Reach PLC,DG1 2AX,Dumfries and Galloway,htfp_database; mrc2021; ramsay,http://icdumfries.icnetwork.co.uk/dumfriesgalloway; http://www.dailyrecord.co.uk/all-about/dumfries-galloway,paid,NA,weekly,Daily_Record,8,322,S12000006,270645,579856,-4.0286298,55.09621,830996.510342947,6675255843.90477,Legacy
Dumfries Courier,DNG Online Limited,DG12 6EJ,Dumfries and Galloway,abc; htfp_database; ipso; jicreg; lmw; mrc2021; ramsay,http://www.dumfriescourier.co.uk/; http://www.dng24.co.uk; http://www.dng24.co.uk/,paid,NA,weekly,dng_24,8,322,S12000006,270645,579856,-4.0286298,55.09621,830996.510342947,6675255843.90477,Legacy
Dundee Evening Telegraph,DC Thomson & Company Limited,DD4 8SL,Dundee City,htfp_database; jicreg; lmw; mrc2021; ramsay,/tag/dundee-evening-telegraph/; https://www.eveningtelegraph.co.uk/; http://www.eveningtelegraph.co.uk/,paid,NA,daily,thecourieruk,2,347,S12000042,340291,732145,-2.9709499,56.4776,51039.8656407906,62410281.6106365,Legacy
Dunfermline Press & West of Fife Advertiser,Newsquest PLC,KY11 8QS,Fife,jicreg; mrc2021; ramsay,http://www.dunfermlinepress.com/,paid,NA,weekly,dunfermlinep,10,349,S12000047,339187,704721,-2.9825101,56.231121,365662.212588176,1372428426.10165,Legacy
Dunmow Broadcast,Newsquest PLC,PE29 3TB; CB10 1EE,East Cambridgeshire,abc; htfp_database; ipso; lmw; mrc2021; newsquest; ramsay,http://www.dunmow-broadcast.co.uk/; /tag/dunmow-broadcast/; https://www.dunmowbroadcast.co.uk/; http://www.dunmowbroadcast.co.uk/home,free,NA,weekly,dissmercury,1,61,E07000009,555576,275765,0.283149,52.35788,192581.077013441,651720387.873582,Legacy
Dunoon Observer & Argyllshire Standard,Argyll Media,PA23 7NS,Argyll and Bute,ipso; mrc2021; ramsay,http://www.dunoon-observer.com/,paid,NA,weekly,dunoonobserver,5,341,S12000035,200740,715443,-5.2211399,56.28944,3638663.64261861,7166073871.16255,Legacy
Durham Advertiser,Newsquest PLC,DH1 1TH,County Durham,ipso; mrc2021; ramsay,http://www.durhamadvertiser.co.uk/,free,NA,weekly,TheNorthernEcho,4,45,E06000047,410381,532242,-1.8405,54.685131,310208.183249691,2232584261.3879,Legacy
Durham Times,Newsquest PLC,DL1 1NF,Darlington,htfp_database; mrc2021; ramsay,/tag/durham-times/; http://www.durhamtimes.co.uk/,paid,NA,weekly,TheNorthernEcho,9,5,E06000005,428029,515648,-1.56835,54.535339,107202.299425244,197477753.555023,Legacy
EC1 Echo,Independent,NA,Islington,cj4; impress; ipso; mrc2021,https://www.ec1echo.co.uk,NA,26/11/2019,NA,Ec1Echo,1,295,E09000019,531158,184647,-0.10992,51.545479,20720.1949694478,14856680.6578682,Legacy
Ealing Gazette (Ealing & Acton),Reach PLC,GU1 1QA,Guildford,mrc2021; ramsay,http://www.getwestlondon.co.uk/all-about/ealing,paid,NA,weekly,myldn,28,207,E07000209,500408,151481,-0.56256998,51.253658,128412.382018559,270931144.020454,Legacy
Ealing Gazette (Greenford & Northolt),Reach PLC,GU1 1QA,Guildford,mrc2021; ramsay,http://www.getwestlondon.co.uk/all-about/ealing,paid,NA,weekly,myldn,28,207,E07000209,500408,151481,-0.56256998,51.253658,128412.382018559,270931144.020454,Legacy
Ealing Gazette (Southall),Reach PLC,GU1 1QA,Guildford,mrc2021; ramsay,http://www.getwestlondon.co.uk/all-about/ealing,paid,NA,weekly,myldn,28,207,E07000209,500408,151481,-0.56256998,51.253658,128412.382018559,270931144.020454,Legacy
Ealing Times,Newsquest PLC,WD18 8RJ,Watford,htfp_database; lmw; mrc2021; newsquest; ramsay,http://www.ealingtimes.co.uk; /tag/ealing-times/; http://www.ealingtimes.co.uk/,free,NA,online,NA,14,126,E07000103,510441,198197,-0.40428999,51.6717,26390.2208397151,21430353.229502,Legacy
Ealing Today,Presumed independent,NA,Ealing,cj4,http://ealingtoday.co.uk,NA,NA,NA,NA,1,285,E09000009,517057,181960,-0.31406999,51.524429,47432.5829098616,55544376.0321627,Independent
Easingwold Advertiser,GH Smith & Son Ltd,YO61 3AB,Hambleton,htfp_database; mrc2021; ramsay,/tag/easingwold-advertiser/; http://www.easingwoldadvertiser.com/,paid,NA,weekly,easingwoldadver,2,173,E07000164,443009,490546,-1.34049,54.30872,298682.454054928,1311256293.98625,Legacy
East Anglian Daily Times (East),Newsquest PLC,IP4 1AN,East Devon,mrc2021; ramsay,http://www.eadt.co.uk/home,paid,NA,daily,eadt24,7,79,E07000040,313787,96051,-3.22364,50.75761,217426.427852526,822443250.853657,Legacy
East Anglian Daily Times (Essex),Newsquest PLC,IP4 1AN,East Devon,mrc2021; ramsay,http://www.eadt.co.uk/home,paid,NA,daily,eadt24,7,79,E07000040,313787,96051,-3.22364,50.75761,217426.427852526,822443250.853657,Legacy
East Anglian Daily Times (West),Newsquest PLC,IP4 1AN,East Devon,mrc2021; ramsay,http://www.eadt.co.uk/home,paid,NA,daily,eadt24,7,79,E07000040,313787,96051,-3.22364,50.75761,217426.427852526,822443250.853657,Legacy
East Cleveland Herald & Post,Reach PLC,TS1 3AZ,Middlesbrough,mrc2021; ramsay,http://www.gazettelive.co.uk/herald-and-post-east-cleveland/,free,NA,weekly,NA,4,2,E06000002,451141,516887,-1.21099,54.544670000000004,41053.9636225345,54553581.0661136,Legacy
East Cornwall Times,Tindle Newspapers Ltd,PL19 0HE,West Devon,lmw; mrc2021; ramsay,http://www.calstock-today.co.uk/,paid,NA,weekly,tavistocktimes,3,86,E07000047,256376,86990,-4.0336099,50.66481,241057.98789461,1164731578.10618,Legacy
East Cumbrian Gazette,Newsquest PLC,CA2 5UA,Carlisle,htfp_database; mrc2021; ramsay,/tag/east-cumbrian-gazette/; http://www.cngroup.co.uk/gaz.php,free,NA,weekly,NA,4,67,E07000028,348576,565154,-2.80498,54.978329,217375.635717721,1056791943.76107,Legacy
East Devon News,Presumed independent,NA,East Devon,cj4; htfp_database; impress,https://eastdevonnews.co.uk; https://eastdevonnews.co.uk/,NA,NA,NA,EastDevonNews,7,79,E07000040,313787,96051,-3.22364,50.75761,217426.427852526,822443250.853657,Independent
East Fife Mail,National World,KY1 1EP,Fife,abc; htfp_database; ipso; jicreg; lmw; mrc2021; ramsay,http://www.fifenow.co.uk; /tag/east-fife-mail/; http://www.fifetoday.co.uk; http://www.fifetoday.co.uk/,paid,NA,weekly,FFP,10,349,S12000047,339187,704721,-2.9825101,56.231121,365662.212588176,1372428426.10165,Legacy
East Grinstead Courier,Reach PLC,RH1 1QT,Reigate and Banstead,abc; ipso; jicreg; lmw; mrc2021; ramsay,https://bit.ly/2zUtivr; http://www.eastgrinsteadcourier.co.uk/,paid,NA,weekly,kentlivenews,4,209,E07000211,525786,152574,-0.19870999,51.258461,79917.0905767467,129143817.748342,Legacy
East Kent Mercury,Iliffe Media,CT14 6EX,Dover,htfp_database; illiffe; ipso; lmw; mrc2021; ramsay,/tag/east-kent-mercury/; http://www.kentonline.co.uk/deal; http://www.kentonline.co.uk/deal/,paid,NA,weekly,KentishExpress,2,130,E07000108,628964,150942,1.2768871,51.211761,117252.015144093,320781018.558195,Legacy
East Kilbride News,Reach PLC,ML3 6AX,South Lanarkshire,abc; htfp_database; ipso; jicreg; lmw; mrc2021; ramsay; reach,http://iclanarkshire.icnetwork.co.uk/eknews; https://bit.ly/2WIRZUE; http://www.dailyrecord.co.uk/all-about/east-kilbride,paid,NA,weekly,Daily_Record,6,337,S12000029,284634,636071,-3.83272,55.60453,284597.023353438,1774015373.08336,Legacy
East Lindsey Target,Reach PLC,LN11 9NW,East Lindsey,mrc2021; ramsay,http://www.eastlindseytarget.co.uk/,free,NA,weekly,LincsLive,4,159,E07000137,534861,376064,0.020516001,53.264462,212614.899578019,1830857187.04966,Legacy
East London Enquirer,Gateway Newspapers Ltd,CM12 0AA,Basildon,mrc2021; ramsay,http://www.theenquirer.co.uk/,free,NA,weekly,NA,8,92,E07000066,571548,190848,0.47505501,51.590359,59682.7276589601,110449130.919031,Legacy
East London and West Essex Guardian,Newsquest PLC,NA,Waltham Forest,htfp_database; lmw; mrc2021,/tag/east-london-and-west-essex-guardian/; https://www.guardian-series.co.uk/,NA,NA,NA,WFGuardian,3,307,E09000031,537327,190277,-0.01881,51.594608,33326.6907765963,38807995.9514475,Legacy
East Lothian Courier,Newsquest PLC,EH41 3AF,East Lothian,htfp_database; ipso; jicreg; lmw; mrc2021; newsquest; ramsay,http://www.eastlothiancourier.com; https://www.eastlothiancourier.com/; http://www.eastlothiancourier.com/,paid,NA,weekly,elcourier,1,324,S12000010,354854,672351,-2.72435,55.94207,196540.423140291,699480553.980652,Legacy
Eastbourne Gazette (Eastbourne),National World,BN21 4SA,Eastbourne,mrc2021; ramsay,http://www.eastbourneherald.co.uk/,paid,NA,weekly,Sussex_World,3,87,E07000061,559339,99575,0.25851601,50.773869,36360.1959360357,45331279.7855287,Legacy
Eastbourne Gazette (Seaford),National World,BN21 4SA,Eastbourne,mrc2021; ramsay,http://www.eastbourneherald.co.uk/,paid,NA,weekly,Sussex_World,3,87,E07000061,559339,99575,0.25851601,50.773869,36360.1959360357,45331279.7855287,Legacy
Eastbourne Herald,National World,BN21 4SA,Eastbourne,abc; htfp_database; ipso; jicreg; lmw; mrc2021; ramsay,http://www.eastbourneherald.co.uk; /tag/eastbourne-herald/; http://www.eastbourneherald.co.uk/,paid,NA,weekly,Sussex_World,3,87,E07000061,559339,99575,0.25851601,50.773869,36360.1959360357,45331279.7855287,Legacy
Eastern Daily Press,Newsquest PLC,NR1 1RE,East Devon,htfp_database; ipso; lmw; mrc2021; newsquest; ramsay,http://www.edp24.co.uk/default.asp; /tag/eastern-daily-press/; https://www.edp24.co.uk/; http://www.edp24.co.uk/home,paid,NA,daily,edp24,7,79,E07000040,313787,96051,-3.22364,50.75761,217426.427852526,822443250.853657,Legacy
Eastern Daily Press (Fenland),Newsquest PLC,NR1 1RE,East Devon,mrc2021; ramsay,http://www.edp24.co.uk/home,paid,NA,daily,edp24,7,79,E07000040,313787,96051,-3.22364,50.75761,217426.427852526,822443250.853657,Legacy
Eastleigh News,Presumed independent,NA,Winchester,cj4; htfp_database,https://www.eastleighnews.co.uk; https://www.eastleighnews.co.uk/,NA,NA,NA,Eastleigh_news,6,120,E07000094,453115,125901,-1.24393,51.030022,168124.187739267,661061291.856428,Independent
Eastleigh Times,Newsquest PLC,NA,Winchester,mrc2021,NA,NA,NA,NA,NA,6,120,E07000094,453115,125901,-1.24393,51.030022,168124.187739267,661061291.856428,Legacy
Eastwood Advertiser,National World,DE7 8ER,Erewash,mrc2021; ramsay,http://www.eastwoodadvertiser.co.uk/,paid,NA,weekly,chadnews,1,75,E07000036,443721,338063,-1.3509001,52.938202,73544.8394314226,109630039.364225,Legacy
Edgware & Mill Hill Press,Tindle Newspapers Ltd,EN5 4JX,Barnet,mrc2021; ramsay,http://www.edgware-today.co.uk/,free,NA,weekly,basildonya,5,279,E09000003,523472,191753,-0.21821,51.61108,50815.597517739,86748227.8830847,Legacy
Edgware & Mill Hill Times,Newsquest PLC,WD18 8RJ,Watford,mrc2021; ramsay,http://www.times-series.co.uk/news/,free,NA,weekly,Times_Series,14,126,E07000103,510441,198197,-0.40428999,51.6717,26390.2208397151,21430353.229502,Legacy
Edinburgh Evening News,National World,EH4 2HS,City of Edinburgh,htfp_database; ipso; mrc2021; ramsay,http://www.edinburghnews.com/; /tag/edinburgh-evening-news/; http://www.edinburghnews.scotsman.com/,paid,NA,daily,edinburghpaper,8,342,S12000036,320193,669417,-3.27826,55.911201,112724.776100732,272887422.95966,Legacy
Edinburgh Reporter,Presumed independent,NA,City of Edinburgh,cj4; htfp_database,https://www.theedinburghreporter.co.uk; https://www.theedinburghreporter.co.uk/,NA,NA,NA,EdinReporter,8,342,S12000036,320193,669417,-3.27826,55.911201,112724.776100732,272887422.95966,Independent
Ellesmere Port Standard,Newsquest PLC,CH1 2LR,Cheshire West and Chester,htfp_database; mrc2021; ramsay,http://www.ellesmereportstandard.co.uk; /tag/ellesmere-port-standard/; http://www.chesterstandard.co.uk/,free,NA,weekly,standardchester,13,47,E06000050,353097,363145,-2.70298,53.163361,258505.194644102,941207319.798833,Legacy
Ellon Advertiser,Iliffe Media,AB53 4DT,Aberdeenshire,ipso; mrc2021; ramsay,http://www.wpeters.co.uk/newspaper.html,paid,11/12/2019,weekly,NA,13,340,S12000034,352284,816277,-2.7920799,57.234692,791859.815926895,6338657613.85259,Legacy
Ellon Times,National World,AB41 9AA,Aberdeenshire,abc; htfp_database; ipso; mrc2021; ramsay,/tag/ellon-times/; http://www.inverurieherald.co.uk/,paid,NA,weekly,TheScotsman,13,340,S12000034,352284,816277,-2.7920799,57.234692,791859.815926895,6338657613.85259,Legacy
Ely Standard (Ely),Newsquest PLC,CB7 4AF,Fenland,mrc2021; ramsay,http://www.elystandard.co.uk/home,paid,NA,weekly,dunmowbroadcast,2,62,E07000010,536361,294959,0.0090159997,52.535439,153632.167779411,547355452.618081,Legacy
Ely Standard (Soham),Newsquest PLC,CB7 4AF,Fenland,mrc2021; ramsay,http://www.elystandard.co.uk/home,paid,NA,weekly,dunmowbroadcast,2,62,E07000010,536361,294959,0.0090159997,52.535439,153632.167779411,547355452.618081,Legacy
Enfield Dispatch,Presumed independent,NA,Enfield,cj4; htfp_database; impress; ipso,https://enfielddispatch.co.uk; https://enfielddispatch.co.uk/,NA,NA,NA,NA,3,286,E09000010,532829,196197,-0.081469998,51.64888,41061.1111768429,82200174.2971125,Independent
Enfield Independent,Newsquest PLC,WD18 8RJ,Watford,htfp_database; ipso; jicreg; lmw; mrc2021; newsquest; ramsay,http://www.enfieldindependent.co.uk; https://www.enfieldindependent.co.uk/; http://www.enfieldindependent.co.uk/,free,NA,weekly,NA,14,126,E07000103,510441,198197,-0.40428999,51.6717,26390.2208397151,21430353.229502,Legacy
Epping Forest Guardian,Newsquest PLC,WD18 8RJ,Watford,ipso; lmw; mrc2021; newsquest; ramsay,http://www.guardian-series.co.uk/news/efnews/,paid,NA,weekly,NA,14,126,E07000103,510441,198197,-0.40428999,51.6717,26390.2208397151,21430353.229502,Legacy
Epping Forest Independent,Newsquest PLC,WD18 8RJ,Watford,mrc2021; ramsay,http://www.guardian-series.co.uk/news/efnews/,free,NA,weekly,NA,14,126,E07000103,510441,198197,-0.40428999,51.6717,26390.2208397151,21430353.229502,Legacy
Epsom Comet,Newsquest PLC,NA,Sutton,lmw; mrc2021,https://www.surreycomet.co.uk/news/epsom/,NA,NA,NA,surreycomet,5,305,E09000029,527356,163640,-0.17227,51.357559,39804.2153145853,43842789.9621698,Legacy
Epworth Times (replacing JPI closure of Epworth Bells),Independent,NA,North Lincolnshire,mrc2021,NA,NA,04/07/2019,NA,NA,2,13,E06000013,497800,410993,-0.52407002,53.58643,183996.302751743,878893399.602416,Legacy
Eskdale & Liddesdale Advertiser,Independent,DG13 0JH,Dumfries and Galloway,mrc2021; ramsay,http://www.eladvertiser.co.uk/,paid,NA,weekly,NA,8,322,S12000006,270645,579856,-4.0286298,55.09621,830996.510342947,6675255843.90477,Legacy
Essex Chronicle (Braintree),Reach PLC,CM2 5PF,Chelmsford,mrc2021; ramsay,http://www.essexchronicle.co.uk/,paid,NA,weekly,essexlive,7,96,E07000070,572116,206972,0.49117699,51.735031,113215.91129173,342997310.005802,Legacy
Essex Chronicle (Chelmsford),Reach PLC,CM2 5PF,Chelmsford,mrc2021; ramsay,http://www.essexchronicle.co.uk/,paid,NA,weekly,essexlive,7,96,E07000070,572116,206972,0.49117699,51.735031,113215.91129173,342997310.005802,Legacy
Essex Chronicle (Maldon),Reach PLC,CM2 5PF,Chelmsford,mrc2021; ramsay,http://www.essexchronicle.co.uk/,paid,NA,weekly,essexlive,7,96,E07000070,572116,206972,0.49117699,51.735031,113215.91129173,342997310.005802,Legacy
Essex County Standard,Newsquest PLC,CO4 9XP,Colchester,htfp_database; ipso; jicreg; lmw; mrc2021; ramsay,http://www.essexcountystandard.co.uk; /tag/essex-county-standard/; http://www.essexcountystandard.co.uk; http://www.essexcountystandard.co.uk/,paid,NA,weekly,TheGazette,2,97,E07000071,596944,223693,0.85977697,51.877022,131019.693361933,346773262.039531,Legacy
Essex Enquirer,Gateway Newspapers Ltd,CM12 0BZ,Basildon,htfp_database; mrc2021; ramsay,/tag/essex-enquirer/; http://www.theenquirer.co.uk/,free,NA,weekly,NA,8,92,E07000066,571548,190848,0.47505501,51.590359,59682.7276589601,110449130.919031,Legacy
Evening Gazette (Teesside),Reach PLC,TS1 3AZ,Middlesbrough,mrc2021; ramsay; reach,http://www.gazettelive.co.uk/,paid,NA,daily,TeessideLive,4,2,E06000002,451141,516887,-1.21099,54.544670000000004,41053.9636225345,54553581.0661136,Legacy
Evesham Journal,Newsquest PLC,WR5 2JG; WR2 5JX,Worcester,htfp_database; ipso; lmw; mrc2021; newsquest; ramsay,http://www.eveshamjournal.co.uk; /tag/evesham-journal/; http://www.eveshamjournal.co.uk/,free,NA,weekly,EveshamJournal,5,231,E07000237,385725,255196,-2.2102499,52.19482,31261.2304343563,33278111.1237198,Legacy
Evesham Observer,Bullivant Media Ltd,B98 8BP,Redditch,htfp_database; lmw; mrc2021; ramsay,http://www.eveshamobserver.co.uk; /tag/evesham-observer/; http://www.eveshamobserver.co.uk/; http://eveshamobserver.co.uk/,free,NA,weekly,EveshamObserver,6,230,E07000236,403705,265253,-1.9471,52.285412,41300.3373143932,54250908.2602637,Legacy
Exeter Observer,Presumed independent,NA,Exeter,cj4; htfp_database; impress,https://exeterobserver.org; https://exeterobserver.org/,NA,NA,NA,exeterobserver,2,80,E07000041,293239,92005,-3.51368,50.717819,37259.8461348524,47884796.9208729,Independent
Exmouth Herald,Newsquest PLC,EX5 2UL,Great Yarmouth,htfp_database; mrc2021; ramsay,http://www.exmouthherald.co.uk; http://www.exmouthherald.co.uk/home,free,NA,weekly,exmouthjournal,3,167,E07000145,646761,315881,1.64951,52.684391,85343.7808652351,182555455.768242,Legacy
Exmouth Journal (Budleigh),Newsquest PLC,EX5 2UL,Great Yarmouth,mrc2021; ramsay,http://www.exmouthjournal.co.uk/home,paid,NA,weekly,exmouthjournal,3,167,E07000145,646761,315881,1.64951,52.684391,85343.7808652351,182555455.768242,Legacy
Exmouth Journal (Exmouth),Newsquest PLC,EX5 2UL,Great Yarmouth,mrc2021; ramsay,http://www.exmouthjournal.co.uk/home,paid,NA,weekly,exmouthjournal,3,167,E07000145,646761,315881,1.64951,52.684391,85343.7808652351,182555455.768242,Legacy
Express and Echo,Reach PLC,EX2 7NF,Exeter,mrc2021; ramsay,http://www.exeterexpressandecho.co.uk/,paid,NA,weekly,devonlivenews,2,80,E07000041,293239,92005,-3.51368,50.717819,37259.8461348524,47884796.9208729,Legacy
Express and Star (Dudley),Midland News Association,WV1 1ES,Wolverhampton,mrc2021; ramsay,http://www.expressandstar.com/,paid,NA,daily,expressandstar,6,270,E08000031,391463,300016,-2.12746,52.597881,56050.1278266088,69436685.126745,Legacy
Express and Star (Sandwell),Midland News Association,B70 0QB,Sandwell,mrc2021; ramsay,http://www.expressandstar.com/,paid,NA,daily,expressandstar,2,267,E08000028,399573,290764,-2.00771,52.514771,59201.685245006,85558906.1867164,Legacy
Express and Star (Walsall),Midland News Association,WV1 1ES,Wolverhampton,mrc2021; ramsay,http://www.expressandstar.com/,paid,NA,daily,expressandstar,6,270,E08000031,391463,300016,-2.12746,52.597881,56050.1278266088,69436685.126745,Legacy
Express and Star (Wolverhampton),Midland News Association,WV1 1ES,Wolverhampton,mrc2021; ramsay,http://www.expressandstar.com/,paid,NA,daily,expressandstar,6,270,E08000031,391463,300016,-2.12746,52.597881,56050.1278266088,69436685.126745,Legacy
Fakenham & Wells Times,Newsquest PLC,NR1 1RE; NR21 9AE,Huntingdonshire,ipso; mrc2021; newsquest; ramsay,http://www.fakenhamtimes.co.uk/home,paid,NA,weekly,elystandard,2,63,E07000011,521008,274269,-0.2247,52.353149,222217.159195719,912545809.932231,Legacy
Falkirk Herald,National World,FK3 8WX,Falkirk,abc; htfp_database; ipso; jicreg; lmw; mrc2021; ramsay,http://www.falkirkherald.co.uk; /tag/falkirk-herald/; http://www.falkirkherald.co.uk; http://www.falkirkherald.co.uk/,paid,NA,weekly,falkirk_herald,4,327,S12000014,285585,680170,-3.83619,56.000771,129349.294976712,314934626.067449,Legacy
Falmouth & Penryn Packet,Newsquest PLC,TR11 4SZ,Cornwall,mrc2021; ramsay,http://www.falmouthpacket.co.uk/news/fpfalmouth/,paid,NA,weekly,ThePacket,31,49,E06000052,212497,64493,-4.64254,50.450218,873551.599856103,3611926259.03619,Legacy
Farnham Herald,Tindle Newspapers Ltd,GU9 7HL,Waverley,htfp_database; ipso; lmw; mrc2021; ramsay; tindle,http://www.farnham-herald-today.co.uk/index2.cfm; /tag/farnham-herald/; http://www.farnhamherald.com/,paid,NA,weekly,farnhamherald,5,214,E07000216,496363,140635,-0.62343001,51.15686,125428.597835175,345170238.491103,Legacy
Faversham News,Iliffe Media,CT5 3SE,Canterbury,illiffe; ipso; lmw; mrc2021; ramsay,http://www.kentonline.co.uk/faversham/,paid,NA,weekly,FavershamNews,5,128,E07000106,616032,158096,1.096342,51.281021,121122.697914939,318604498.426348,Legacy
Feltham Chronicle,Reach PLC,GU1 1QA,Guildford,mrc2021; ramsay,http://www.getwestlondon.co.uk/all-about/feltham,paid,NA,weekly,myldn,28,207,E07000209,500408,151481,-0.56256998,51.253658,128412.382018559,270931144.020454,Legacy
Fenland Citizen,Iliffe Media,PE30 1HL,King's Lynn and West Norfolk,abc; htfp_database; illiffe; ipso; jicreg; lmw; mrc2021; ramsay,http://www.fenlandtoday.co.uk; /tag/fenland-citizen/; http://www.fenlandcitizen.co.uk; www.fenlandcitizen.co.uk,free,NA,weekly,fenlandcit,3,168,E07000146,571219,315805,0.533243,52.71283,286981.939883618,1526887176.6474,Legacy
Fife & Kinross Extra,Newsquest PLC,KY11 8QS,Fife,ipso; mrc2021; ramsay,http://www.dunfermlinepress.com/,free,NA,weekly,dunfermlinep,10,349,S12000047,339187,704721,-2.9825101,56.231121,365662.212588176,1372428426.10165,Legacy
Fife Free Press,National World,KY1 1EP,Fife,abc; htfp_database; ipso; jicreg; lmw; mrc2021; ramsay,http://www.fifenow.co.uk; /tag/fife-free-press/; http://www.fifetoday.co.uk; http://www.fifetoday.co.uk/,paid,NA,weekly,FFP,10,349,S12000047,339187,704721,-2.9825101,56.231121,365662.212588176,1372428426.10165,Legacy
Fife Herald,National World,KY1 1EP,Fife,abc; htfp_database; ipso; lmw; mrc2021; ramsay,http://www.fifenow.co.uk; /tag/fife-herald/; http://www.fifetoday.co.uk; http://www.fifetoday.co.uk/,paid,NA,weekly,FFP,10,349,S12000047,339187,704721,-2.9825101,56.231121,365662.212588176,1372428426.10165,Legacy
Filey & Hunmanby Mercury,National World,YO11 1BB,Scarborough,htfp_database; ipso; mrc2021; ramsay,http://www.Hunmanbytoday.co.uk; http://www.fileymercury.co.uk/,paid,NA,weekly,thescarboronews,4,177,E07000168,487119,504929,-0.65851003,54.432339,260888.144834405,755507449.086392,Legacy
Filton Journal,Presumed independent,NA,South Gloucestershire,cj4,http://www.filtonjournal.co.uk,NA,NA,NA,FiltonJournal,3,25,E06000025,367559,183198,-2.4692199,51.54673,159811.066254149,536758456.067128,Independent
Fitzrovia News,Presumed independent,NA,Camden,cj4,https://fitzrovianews.com,NA,NA,NA,FitzroviaNews,10,283,E09000007,527492,184284,-0.16289,51.54306,26149.495598481,21789308.5952668,Independent
Fleetwood Weekly News,National World,FY8 1RF,Fylde,htfp_database; ipso; lmw; mrc2021; ramsay,http://www.fleetwoodtoday.co.uk; /tag/fleetwood-weekly-news/; blackpoolgazette.co.uk; http://www.fleetwoodtoday.co.uk/,paid,NA,weekly,the_gazette,3,141,E07000119,339554,433811,-2.9191401,53.797089,77382.1894679505,181731239.022532,Legacy
Flintshire Chronicle,Reach PLC,LL31 9SL,Conwy,htfp_database; lmw; mrc2021; ramsay,/tag/flintshire-chronicle/; https://bit.ly/2LHu2GX; http://www.dailypost.co.uk/all-about/flintshire,paid,NA,weekly,northwaleslive,3,355,W06000003,283293,362563,-3.74646,53.147388,241832.154567041,1149211627.68346,Legacy
Flintshire Standard,Newsquest PLC,CH7 1XY,Flintshire,mrc2021; ramsay,http://www.leaderlive.co.uk/,free,NA,weekly,leaderlive,11,357,W06000005,321134,369280,-3.1824801,53.21471,143111.97070364,489500774.219026,Legacy
Folkestone & Hythe Express,Iliffe Media,TN24 8JR,Ashford,abc; illiffe; mrc2021; ramsay,http://www.kentonline.co.uk/folkestone/,paid,NA,weekly,FHExpress,7,127,E07000105,597640,140644,0.82337397,51.130959,149444.582577307,580617311.896739,Legacy
Forest of Dean & Wye Valley Review,Tindle Newspapers Ltd,GL5 2HE,Stroud,htfp_database; mrc2021; ramsay; tindle,http://www.caldicot-today.co.uk/IT/index2.cfm; http://www.theforestreview.co.uk/,free,NA,weekly,DeanWyeNews,5,108,E07000082,378807,202410,-2.3081801,51.720009,171890.078096168,475427750.57012,Legacy
Formby Champion,Waypride Ltd,PR9 0QA,Sefton,htfp_database; mrc2021; ramsay,http://www.champnews.com; http://www.champnews.com/,free,NA,weekly,NA,9,254,E08000014,334282,398832,-2.99177,53.482101,115703.659536219,202462446.366116,Legacy
Forres Gazette,Iliffe Media,IV36 1DX,Moray,abc; htfp_database; ipso; jicreg; lmw; mrc2021; ramsay,http://www.forres-gazette.co.uk; /tag/forres-gazette/; http://www.forres-gazette.co.uk/Home/,paid,11/12/2019,weekly,Forres_Gazette,4,331,S12000020,328015,843590,-3.2020199,57.476799,395443.843108014,2257632218.03482,Legacy
Fraserburgh Herald,National World,AB43 9HP,Aberdeenshire,abc; htfp_database; ipso; lmw; mrc2021; ramsay,/tag/fraserburgh-herald/; http://www.fraserburghherald.co.uk/,paid,NA,weekly,TheScotsman,13,340,S12000034,352284,816277,-2.7920799,57.234692,791859.815926895,6338657613.85259,Legacy
Free Press of Monmouth,Newsquest PLC,NP20 3QN,Newport,mrc2021; ramsay,http://www.freepressseries.co.uk/,paid,NA,weekly,NA,5,372,W06000022,337897,187432,-2.8976901,51.58231,135644.59703238,217517982.932784,Legacy
Frinton & Walton Gazette,Newsquest PLC,CO15 1QL,Tendring,mrc2021; ramsay,http://www.clactonandfrintongazette.co.uk/,paid,NA,weekly,NA,4,102,E07000076,614190,222141,1.108981,51.856739,99196.0018990169,366182684.386463,Legacy
Frome Standard,Reach PLC,BA3 2DE,Bath and North East Somerset,abc; mrc2021; ramsay,http://www.fromestandard.co.uk/,paid,NA,weekly,somersetlive,4,22,E06000022,366217,161999,-2.4865401,51.356041,141674.070852301,351123167.511109,Legacy
Frome Times,Presumed independent,NA,Mendip,cj4; htfp_database,http://www.frometimes.co.uk; http://www.frometimes.co.uk/,NA,NA,NA,frometimes,5,191,E07000187,362238,144090,-2.54178,51.194759,198844.392404698,739435455.841386,Independent
Fulham Chronicle,Street Runners Ltd,SE20 7TS,Bromley,mrc2021; ramsay,http://www.londonweeklynews.co.uk/news/westminsterPimlico/,free,18/07/2017,weekly,NA,9,282,E09000006,542036,165708,0.039246,51.372669,76141.6277070387,150130427.159217,Legacy
Gainsborough Standard,National World,DN21 2NA,West Lindsey,abc; htfp_database; ipso; jicreg; lmw; mrc2021; ramsay,http://www.gainsboroughtoday.co.uk; /tag/gainsborough-standard/; https://www.lincolnshireworld.com/; http://www.gainsboroughstandard.co.uk/,paid,NA,weekly,LincsWorld,2,164,E07000142,499314,390326,-0.50774002,53.40044,247204.136151344,1157652118.37819,Legacy
Galloway Gazette & Stranraer News,National World,DG8 6NL,Dumfries and Galloway,mrc2021; ramsay,http://www.gallowaygazette.co.uk/,paid,NA,weekly,gallgaz,8,322,S12000006,270645,579856,-4.0286298,55.09621,830996.510342947,6675255843.90477,Legacy
Galloway News,Reach PLC,DG1 2AX,Dumfries and Galloway,htfp_database; ipso; jicreg; lmw; mrc2021; ramsay; reach,http://icdumfries.icnetwork.co.uk/gallowaynews; https://bit.ly/36dydUD; http://www.dailyrecord.co.uk/all-about/dumfries-galloway,paid,NA,weekly,Daily_Record,8,322,S12000006,270645,579856,-4.0286298,55.09621,830996.510342947,6675255843.90477,Legacy
Garstang Courier,National World,PR2 9ZA,Preston,abc; ipso; lmw; mrc2021; ramsay,http://garstangcourier.co.uk; http://www.garstangcourier.co.uk/,paid,NA,weekly,leponline,5,145,E07000123,352825,436432,-2.7180901,53.822021,71117.987874445,142944810.106093,Legacy
Gazette & Herald - Yorkshire,Newsquest PLC,YO1 9YN,York,jicreg; mrc2021; ramsay,http://www.gazetteherald.co.uk/,paid,NA,weekly,gazetteherald,3,14,E06000014,460864,452589,-1.07375,53.96582,99462.6409193562,272009286.325572,Legacy
Gazette - Blackpool,National World,FY4 2DP,Fylde,mrc2021; ramsay,http://www.blackpoolgazette.co.uk/,paid,NA,daily,the_gazette,3,141,E07000119,339554,433811,-2.9191401,53.797089,77382.1894679505,181731239.022532,Legacy
Gedling Eye,Presumed independent,NA,Gedling,cj4; htfp_database; impress,https://www.gedlingeye.co.uk; https://www.gedlingeye.co.uk/,NA,NA,NA,gedlingeye,1,182,E07000173,459184,347811,-1.1190701,53.024342,69750.8310113413,119981502.245994,Independent
Getreading,Reach PLC,RG1 8NS,Reading,mrc2021; ramsay,http://www.getreading.co.uk/,free,NA,online,berkshire_live,13,36,E06000038,470226,173154,-0.99071002,51.453018,39327.6361285706,40397937.1150196,Legacy
Glamorgan Gazette,Reach PLC,CF10 1XR,Cardiff,abc; htfp_database; ipso; lmw; mrc2021; ramsay,http://icwales.icnetwork.co.uk/0100news; https://www.walesonline.co.uk/; http://www.walesonline.co.uk/all-about/bridgend,paid,NA,weekly,WalesOnline,9,366,W06000015,315272,178887,-3.22209,51.502541,70140.1456385469,149444861.046783,Legacy
Glasgow West End Today,Presumed independent,NA,Glasgow City,cj4,https://www.glasgowwestendtoday.scot,NA,NA,NA,GlasgowWEToday,3,351,S12000049,261534,667033,-4.2147899,55.876492,108633.014797119,176356721.676201,Independent
Glasgow World,Presumed independent,NA,Glasgow City,NA,NA,NA,Aug-21,NA,NA,3,351,S12000049,261534,667033,-4.2147899,55.876492,108633.014797119,176356721.676201,Independent
Glenrothes Gazette,National World,KY1 1EP,Fife,abc; htfp_database; ipso; jicreg; lmw; mrc2021; ramsay,http://www.fifenow.co.uk; /tag/glenrothes-gazette/; https://www.fifetoday.co.uk/; http://www.fifetoday.co.uk/,paid,NA,weekly,FFP,10,349,S12000047,339187,704721,-2.9825101,56.231121,365662.212588176,1372428426.10165,Legacy
Gloucester Review,Tindle Newspapers Ltd,GL15 5HE,Forest of Dean,lmw; mrc2021; ramsay,http://www.gloucesterreview.co.uk; http://www.gloucesterreview.co.uk/,free,NA,weekly,GlosReviewNews,2,106,E07000080,367175,212759,-2.47755,51.812489,191241.011013552,561873675.617496,Legacy
